<?xml version="1.0" encoding="utf-8" ?>
<Defs>
  <feature>
    <cleanName>Aban</cleanName>
    <target>MARS</target>
    <system>MARS</system>
    <diameter>4.28</diameter>
    <centerlatitude>15.91</centerlatitude>
    <centerlongitude>111.1</centerlongitude>
    <featuretype code="AA">Crater, craters</featuretype>
  </feature>
  <feature>
    <cleanName>Achar</cleanName>
    <target>MARS</target>
    <system>MARS</system>
    <diameter>5.36</diameter>
    <centerlatitude>45.43</centerlatitude>
    <centerlongitude>123.16</centerlongitude>
    <featuretype code="AA">Crater, craters</featuretype>
  </feature>
  <feature>
    <cleanName>Ada</cleanName>
    <target>MARS</target>
    <system>MARS</system>
    <diameter>2.09</diameter>
    <centerlatitude>-3.06</centerlatitude>
    <centerlongitude>356.78</centerlongitude>
    <featuretype code="AA">Crater, craters</featuretype>
  </feature>
  <feature>
    <cleanName>Adams</cleanName>
    <target>MARS</target>
    <system>MARS</system>
    <diameter>90.22</diameter>
    <centerlatitude>30.91</centerlatitude>
    <centerlongitude>163.1</centerlongitude>
    <featuretype code="AA">Crater, craters</featuretype>
  </feature>
  <feature>
    <cleanName>Agassiz</cleanName>
    <target>MARS</target>
    <system>MARS</system>
    <diameter>108.77</diameter>
    <centerlatitude>-69.88</centerlatitude>
    <centerlongitude>271.11</centerlongitude>
    <featuretype code="AA">Crater, craters</featuretype>
  </feature>
  <feature>
    <cleanName>Airy</cleanName>
    <target>MARS</target>
    <system>MARS</system>
    <diameter>43.05</diameter>
    <centerlatitude>-5.14</centerlatitude>
    <centerlongitude>0.05</centerlongitude>
    <featuretype code="AA">Crater, craters</featuretype>
  </feature>
  <feature>
    <cleanName>Airy 0</cleanName>
    <target>MARS</target>
    <system>MARS</system>
    <diameter>0.79</diameter>
    <centerlatitude>-5.07</centerlatitude>
    <centerlongitude>0</centerlongitude>
    <featuretype code="AA">Crater, craters</featuretype>
  </feature>
  <feature>
    <cleanName>Ajon</cleanName>
    <target>MARS</target>
    <system>MARS</system>
    <diameter>8.08</diameter>
    <centerlatitude>16.49</centerlatitude>
    <centerlongitude>103.14</centerlongitude>
    <featuretype code="AA">Crater, craters</featuretype>
  </feature>
  <feature>
    <cleanName>Aki</cleanName>
    <target>MARS</target>
    <system>MARS</system>
    <diameter>7.87</diameter>
    <centerlatitude>-35.46</centerlatitude>
    <centerlongitude>299.76</centerlongitude>
    <featuretype code="AA">Crater, craters</featuretype>
  </feature>
  <feature>
    <cleanName>Aktaj</cleanName>
    <target>MARS</target>
    <system>MARS</system>
    <diameter>5.01</diameter>
    <centerlatitude>20.41</centerlatitude>
    <centerlongitude>313.51</centerlongitude>
    <featuretype code="AA">Crater, craters</featuretype>
  </feature>
  <feature>
    <cleanName>Alamos</cleanName>
    <target>MARS</target>
    <system>MARS</system>
    <diameter>6.44</diameter>
    <centerlatitude>23.48</centerlatitude>
    <centerlongitude>322.88</centerlongitude>
    <featuretype code="AA">Crater, craters</featuretype>
  </feature>
  <feature>
    <cleanName>Albany</cleanName>
    <target>MARS</target>
    <system>MARS</system>
    <diameter>2.15</diameter>
    <centerlatitude>22.96</centerlatitude>
    <centerlongitude>310.98</centerlongitude>
    <featuretype code="AA">Crater, craters</featuretype>
  </feature>
  <feature>
    <cleanName>Albi</cleanName>
    <target>MARS</target>
    <system>MARS</system>
    <diameter>9.07</diameter>
    <centerlatitude>-41.47</centerlatitude>
    <centerlongitude>324.99</centerlongitude>
    <featuretype code="AA">Crater, craters</featuretype>
  </feature>
  <feature>
    <cleanName>Alexey Tolstoy</cleanName>
    <target>MARS</target>
    <system>MARS</system>
    <diameter>93.04</diameter>
    <centerlatitude>-47.44</centerlatitude>
    <centerlongitude>125.34</centerlongitude>
    <featuretype code="AA">Crater, craters</featuretype>
  </feature>
  <feature>
    <cleanName>Alga</cleanName>
    <target>MARS</target>
    <system>MARS</system>
    <diameter>18.72</diameter>
    <centerlatitude>-24.34</centerlatitude>
    <centerlongitude>333.32</centerlongitude>
    <featuretype code="AA">Crater, craters</featuretype>
  </feature>
  <feature>
    <cleanName>Alitus</cleanName>
    <target>MARS</target>
    <system>MARS</system>
    <diameter>50</diameter>
    <centerlatitude>-34.91</centerlatitude>
    <centerlongitude>321.86</centerlongitude>
    <featuretype code="AA">Crater, craters</featuretype>
  </feature>
  <feature>
    <cleanName>Alnif</cleanName>
    <target>MARS</target>
    <system>MARS</system>
    <diameter>23.99</diameter>
    <centerlatitude>-15.14</centerlatitude>
    <centerlongitude>328.91</centerlongitude>
    <featuretype code="AA">Crater, craters</featuretype>
  </feature>
  <feature>
    <cleanName>Alofi</cleanName>
    <target>MARS</target>
    <system>MARS</system>
    <diameter>43</diameter>
    <centerlatitude>9.84</centerlatitude>
    <centerlongitude>359.98</centerlongitude>
    <featuretype code="AA">Crater, craters</featuretype>
  </feature>
  <feature>
    <cleanName>Amsterdam</cleanName>
    <target>MARS</target>
    <system>MARS</system>
    <diameter>1.66</diameter>
    <centerlatitude>23</centerlatitude>
    <centerlongitude>313</centerlongitude>
    <featuretype code="AA">Crater, craters</featuretype>
  </feature>
  <feature>
    <cleanName>Andapa</cleanName>
    <target>MARS</target>
    <system>MARS</system>
    <diameter>11</diameter>
    <centerlatitude>-5.33</centerlatitude>
    <centerlongitude>355.27</centerlongitude>
    <featuretype code="AA">Crater, craters</featuretype>
  </feature>
  <feature>
    <cleanName>Angu</cleanName>
    <target>MARS</target>
    <system>MARS</system>
    <diameter>2.08</diameter>
    <centerlatitude>20.01</centerlatitude>
    <centerlongitude>105.64</centerlongitude>
    <featuretype code="AA">Crater, craters</featuretype>
  </feature>
  <feature>
    <cleanName>Aniak</cleanName>
    <target>MARS</target>
    <system>MARS</system>
    <diameter>50.97</diameter>
    <centerlatitude>-31.84</centerlatitude>
    <centerlongitude>290.44</centerlongitude>
    <featuretype code="AA">Crater, craters</featuretype>
  </feature>
  <feature>
    <cleanName>Annapolis</cleanName>
    <target>MARS</target>
    <system>MARS</system>
    <diameter>1.11</diameter>
    <centerlatitude>23.16</centerlatitude>
    <centerlongitude>312.27</centerlongitude>
    <featuretype code="AA">Crater, craters</featuretype>
  </feature>
  <feature>
    <cleanName>Antoniadi</cleanName>
    <target>MARS</target>
    <system>MARS</system>
    <diameter>400.95</diameter>
    <centerlatitude>21.38</centerlatitude>
    <centerlongitude>60.83</centerlongitude>
    <featuretype code="AA">Crater, craters</featuretype>
  </feature>
  <feature>
    <cleanName>Apia</cleanName>
    <target>MARS</target>
    <system>MARS</system>
    <diameter>10.06</diameter>
    <centerlatitude>-37.28</centerlatitude>
    <centerlongitude>89.02</centerlongitude>
    <featuretype code="AA">Crater, craters</featuretype>
  </feature>
  <feature>
    <cleanName>Apt</cleanName>
    <target>MARS</target>
    <system>MARS</system>
    <diameter>9.57</diameter>
    <centerlatitude>39.88</centerlatitude>
    <centerlongitude>350.53</centerlongitude>
    <featuretype code="AA">Crater, craters</featuretype>
  </feature>
  <feature>
    <cleanName>Arago</cleanName>
    <target>MARS</target>
    <system>MARS</system>
    <diameter>152.35</diameter>
    <centerlatitude>10.22</centerlatitude>
    <centerlongitude>29.93</centerlongitude>
    <featuretype code="AA">Crater, craters</featuretype>
  </feature>
  <feature>
    <cleanName>Arandas</cleanName>
    <target>MARS</target>
    <system>MARS</system>
    <diameter>24.76</diameter>
    <centerlatitude>42.41</centerlatitude>
    <centerlongitude>344.97</centerlongitude>
    <featuretype code="AA">Crater, craters</featuretype>
  </feature>
  <feature>
    <cleanName>Argas</cleanName>
    <target>MARS</target>
    <system>MARS</system>
    <diameter>3.55</diameter>
    <centerlatitude>23.33</centerlatitude>
    <centerlongitude>309.83</centerlongitude>
    <featuretype code="AA">Crater, craters</featuretype>
  </feature>
  <feature>
    <cleanName>Arica</cleanName>
    <target>MARS</target>
    <system>MARS</system>
    <diameter>15.77</diameter>
    <centerlatitude>-23.8</centerlatitude>
    <centerlongitude>110.24</centerlongitude>
    <featuretype code="AA">Crater, craters</featuretype>
  </feature>
  <feature>
    <cleanName>Arima</cleanName>
    <target>MARS</target>
    <system>MARS</system>
    <diameter>53.59</diameter>
    <centerlatitude>-15.84</centerlatitude>
    <centerlongitude>296.32</centerlongitude>
    <featuretype code="AA">Crater, craters</featuretype>
  </feature>
  <feature>
    <cleanName>Arkhangelsky</cleanName>
    <target>MARS</target>
    <system>MARS</system>
    <diameter>116.83</diameter>
    <centerlatitude>-41.09</centerlatitude>
    <centerlongitude>335.21</centerlongitude>
    <featuretype code="AA">Crater, craters</featuretype>
  </feature>
  <feature>
    <cleanName>Arrhenius</cleanName>
    <target>MARS</target>
    <system>MARS</system>
    <diameter>122.72</diameter>
    <centerlatitude>-40.04</centerlatitude>
    <centerlongitude>122.71</centerlongitude>
    <featuretype code="AA">Crater, craters</featuretype>
  </feature>
  <feature>
    <cleanName>Arta</cleanName>
    <target>MARS</target>
    <system>MARS</system>
    <diameter>3.96</diameter>
    <centerlatitude>21.38</centerlatitude>
    <centerlongitude>305.71</centerlongitude>
    <featuretype code="AA">Crater, craters</featuretype>
  </feature>
  <feature>
    <cleanName>Artik</cleanName>
    <target>MARS</target>
    <system>MARS</system>
    <diameter>5.36</diameter>
    <centerlatitude>-34.8</centerlatitude>
    <centerlongitude>130.98</centerlongitude>
    <featuretype code="AA">Crater, craters</featuretype>
  </feature>
  <feature>
    <cleanName>Asau</cleanName>
    <target>MARS</target>
    <system>MARS</system>
    <diameter>25.05</diameter>
    <centerlatitude>-3.63</centerlatitude>
    <centerlongitude>154.68</centerlongitude>
    <featuretype code="AA">Crater, craters</featuretype>
  </feature>
  <feature>
    <cleanName>Asimov</cleanName>
    <target>MARS</target>
    <system>MARS</system>
    <diameter>80.82</diameter>
    <centerlatitude>-46.97</centerlatitude>
    <centerlongitude>4.93</centerlongitude>
    <featuretype code="AA">Crater, craters</featuretype>
  </feature>
  <feature>
    <cleanName>Aspen</cleanName>
    <target>MARS</target>
    <system>MARS</system>
    <diameter>18.48</diameter>
    <centerlatitude>-21.39</centerlatitude>
    <centerlongitude>336.85</centerlongitude>
    <featuretype code="AA">Crater, craters</featuretype>
  </feature>
  <feature>
    <cleanName>Auce</cleanName>
    <target>MARS</target>
    <system>MARS</system>
    <diameter>37.01</diameter>
    <centerlatitude>-27.17</centerlatitude>
    <centerlongitude>80.14</centerlongitude>
    <featuretype code="AA">Crater, craters</featuretype>
  </feature>
  <feature>
    <cleanName>Auki</cleanName>
    <target>MARS</target>
    <system>MARS</system>
    <diameter>40</diameter>
    <centerlatitude>-15.76</centerlatitude>
    <centerlongitude>96.87</centerlongitude>
    <featuretype code="AA">Crater, craters</featuretype>
  </feature>
  <feature>
    <cleanName>Avan</cleanName>
    <target>MARS</target>
    <system>MARS</system>
    <diameter>3.3</diameter>
    <centerlatitude>-10.97</centerlatitude>
    <centerlongitude>290.23</centerlongitude>
    <featuretype code="AA">Crater, craters</featuretype>
  </feature>
  <feature>
    <cleanName>Avarua</cleanName>
    <target>MARS</target>
    <system>MARS</system>
    <diameter>49.99</diameter>
    <centerlatitude>-35.93</centerlatitude>
    <centerlongitude>109.66</centerlongitude>
    <featuretype code="AA">Crater, craters</featuretype>
  </feature>
  <feature>
    <cleanName>Aveiro</cleanName>
    <target>MARS</target>
    <system>MARS</system>
    <diameter>9.11</diameter>
    <centerlatitude>21.28</centerlatitude>
    <centerlongitude>281.03</centerlongitude>
    <featuretype code="AA">Crater, craters</featuretype>
  </feature>
  <feature>
    <cleanName>Avire</cleanName>
    <target>MARS</target>
    <system>MARS</system>
    <diameter>6.85</diameter>
    <centerlatitude>-40.82</centerlatitude>
    <centerlongitude>200.24</centerlongitude>
    <featuretype code="AA">Crater, craters</featuretype>
  </feature>
  <feature>
    <cleanName>Ayacucho</cleanName>
    <target>MARS</target>
    <system>MARS</system>
    <diameter>2.59</diameter>
    <centerlatitude>38.18</centerlatitude>
    <centerlongitude>267.97</centerlongitude>
    <featuretype code="AA">Crater, craters</featuretype>
  </feature>
  <feature>
    <cleanName>Ayr</cleanName>
    <target>MARS</target>
    <system>MARS</system>
    <diameter>12.74</diameter>
    <centerlatitude>-38.98</centerlatitude>
    <centerlongitude>91.58</centerlongitude>
    <featuretype code="AA">Crater, craters</featuretype>
  </feature>
  <feature>
    <cleanName>Azul</cleanName>
    <target>MARS</target>
    <system>MARS</system>
    <diameter>19.53</diameter>
    <centerlatitude>-42.07</centerlatitude>
    <centerlongitude>317.49</centerlongitude>
    <featuretype code="AA">Crater, craters</featuretype>
  </feature>
  <feature>
    <cleanName>Azusa</cleanName>
    <target>MARS</target>
    <system>MARS</system>
    <diameter>39.25</diameter>
    <centerlatitude>-5.48</centerlatitude>
    <centerlongitude>319.68</centerlongitude>
    <featuretype code="AA">Crater, craters</featuretype>
  </feature>
  <feature>
    <cleanName>Babakin</cleanName>
    <target>MARS</target>
    <system>MARS</system>
    <diameter>76.66</diameter>
    <centerlatitude>-36</centerlatitude>
    <centerlongitude>288.56</centerlongitude>
    <featuretype code="AA">Crater, craters</featuretype>
  </feature>
  <feature>
    <cleanName>Bacht</cleanName>
    <target>MARS</target>
    <system>MARS</system>
    <diameter>7.86</diameter>
    <centerlatitude>18.66</centerlatitude>
    <centerlongitude>102.7</centerlongitude>
    <featuretype code="AA">Crater, craters</featuretype>
  </feature>
  <feature>
    <cleanName>Bacolor</cleanName>
    <target>MARS</target>
    <system>MARS</system>
    <diameter>21.58</diameter>
    <centerlatitude>32.99</centerlatitude>
    <centerlongitude>118.6</centerlongitude>
    <featuretype code="AA">Crater, craters</featuretype>
  </feature>
  <feature>
    <cleanName>Bada</cleanName>
    <target>MARS</target>
    <system>MARS</system>
    <diameter>2.52</diameter>
    <centerlatitude>20.35</centerlatitude>
    <centerlongitude>309.31</centerlongitude>
    <featuretype code="AA">Crater, craters</featuretype>
  </feature>
  <feature>
    <cleanName>Badwater</cleanName>
    <target>MARS</target>
    <system>MARS</system>
    <diameter>33.14</diameter>
    <centerlatitude>-32.79</centerlatitude>
    <centerlongitude>62.14</centerlongitude>
    <featuretype code="AA">Crater, craters</featuretype>
  </feature>
  <feature>
    <cleanName>Bahn</cleanName>
    <target>MARS</target>
    <system>MARS</system>
    <diameter>11.93</diameter>
    <centerlatitude>-3.5</centerlatitude>
    <centerlongitude>316.68</centerlongitude>
    <featuretype code="AA">Crater, craters</featuretype>
  </feature>
  <feature>
    <cleanName>Bak</cleanName>
    <target>MARS</target>
    <system>MARS</system>
    <diameter>3.13</diameter>
    <centerlatitude>18.05</centerlatitude>
    <centerlongitude>103.78</centerlongitude>
    <featuretype code="AA">Crater, craters</featuretype>
  </feature>
  <feature>
    <cleanName>Bakhuysen</cleanName>
    <target>MARS</target>
    <system>MARS</system>
    <diameter>152.9</diameter>
    <centerlatitude>-22.97</centerlatitude>
    <centerlongitude>15.73</centerlongitude>
    <featuretype code="AA">Crater, craters</featuretype>
  </feature>
  <feature>
    <cleanName>Balboa</cleanName>
    <target>MARS</target>
    <system>MARS</system>
    <diameter>21.95</diameter>
    <centerlatitude>-3.82</centerlatitude>
    <centerlongitude>326.12</centerlongitude>
    <featuretype code="AA">Crater, craters</featuretype>
  </feature>
  <feature>
    <cleanName>Baldet</cleanName>
    <target>MARS</target>
    <system>MARS</system>
    <diameter>181.31</diameter>
    <centerlatitude>22.76</centerlatitude>
    <centerlongitude>65.48</centerlongitude>
    <featuretype code="AA">Crater, craters</featuretype>
  </feature>
  <feature>
    <cleanName>Balta</cleanName>
    <target>MARS</target>
    <system>MARS</system>
    <diameter>17.28</diameter>
    <centerlatitude>-23.82</centerlatitude>
    <centerlongitude>333.45</centerlongitude>
    <featuretype code="AA">Crater, craters</featuretype>
  </feature>
  <feature>
    <cleanName>Baltisk</cleanName>
    <target>MARS</target>
    <system>MARS</system>
    <diameter>50.75</diameter>
    <centerlatitude>-42.27</centerlatitude>
    <centerlongitude>305.34</centerlongitude>
    <featuretype code="AA">Crater, craters</featuretype>
  </feature>
  <feature>
    <cleanName>Balvicar</cleanName>
    <target>MARS</target>
    <system>MARS</system>
    <diameter>20.35</diameter>
    <centerlatitude>16.2</centerlatitude>
    <centerlongitude>306.76</centerlongitude>
    <featuretype code="AA">Crater, craters</featuretype>
  </feature>
  <feature>
    <cleanName>Bam</cleanName>
    <target>MARS</target>
    <system>MARS</system>
    <diameter>6.8</diameter>
    <centerlatitude>-25.79</centerlatitude>
    <centerlongitude>115.67</centerlongitude>
    <featuretype code="AA">Crater, craters</featuretype>
  </feature>
  <feature>
    <cleanName>Bamba</cleanName>
    <target>MARS</target>
    <system>MARS</system>
    <diameter>22.57</diameter>
    <centerlatitude>-3.36</centerlatitude>
    <centerlongitude>318.41</centerlongitude>
    <featuretype code="AA">Crater, craters</featuretype>
  </feature>
  <feature>
    <cleanName>Bamberg</cleanName>
    <target>MARS</target>
    <system>MARS</system>
    <diameter>55.7</diameter>
    <centerlatitude>39.71</centerlatitude>
    <centerlongitude>356.9</centerlongitude>
    <featuretype code="AA">Crater, craters</featuretype>
  </feature>
  <feature>
    <cleanName>Banes</cleanName>
    <target>MARS</target>
    <system>MARS</system>
    <diameter>41</diameter>
    <centerlatitude>10.76</centerlatitude>
    <centerlongitude>355.68</centerlongitude>
    <featuretype code="AA">Crater, craters</featuretype>
  </feature>
  <feature>
    <cleanName>Banff</cleanName>
    <target>MARS</target>
    <system>MARS</system>
    <diameter>5</diameter>
    <centerlatitude>17.51</centerlatitude>
    <centerlongitude>329.29</centerlongitude>
    <featuretype code="AA">Crater, craters</featuretype>
  </feature>
  <feature>
    <cleanName>Banh</cleanName>
    <target>MARS</target>
    <system>MARS</system>
    <diameter>14.4</diameter>
    <centerlatitude>19.42</centerlatitude>
    <centerlongitude>304.5</centerlongitude>
    <featuretype code="AA">Crater, craters</featuretype>
  </feature>
  <feature>
    <cleanName>Bar</cleanName>
    <target>MARS</target>
    <system>MARS</system>
    <diameter>2.06</diameter>
    <centerlatitude>-25.25</centerlatitude>
    <centerlongitude>340.5</centerlongitude>
    <featuretype code="AA">Crater, craters</featuretype>
  </feature>
  <feature>
    <cleanName>Barabashov</cleanName>
    <target>MARS</target>
    <system>MARS</system>
    <diameter>120.67</diameter>
    <centerlatitude>47.33</centerlatitude>
    <centerlongitude>291.25</centerlongitude>
    <featuretype code="AA">Crater, craters</featuretype>
  </feature>
  <feature>
    <cleanName>Barnard</cleanName>
    <target>MARS</target>
    <system>MARS</system>
    <diameter>121.11</diameter>
    <centerlatitude>-61.06</centerlatitude>
    <centerlongitude>61.59</centerlongitude>
    <featuretype code="AA">Crater, craters</featuretype>
  </feature>
  <feature>
    <cleanName>Baro</cleanName>
    <target>MARS</target>
    <system>MARS</system>
    <diameter>16.93</diameter>
    <centerlatitude>-24.8</centerlatitude>
    <centerlongitude>110.7</centerlongitude>
    <featuretype code="AA">Crater, craters</featuretype>
  </feature>
  <feature>
    <cleanName>Barsukov</cleanName>
    <target>MARS</target>
    <system>MARS</system>
    <diameter>68.45</diameter>
    <centerlatitude>7.97</centerlatitude>
    <centerlongitude>330.98</centerlongitude>
    <featuretype code="AA">Crater, craters</featuretype>
  </feature>
  <feature>
    <cleanName>Barth</cleanName>
    <target>MARS</target>
    <system>MARS</system>
    <diameter>111</diameter>
    <centerlatitude>7.44</centerlatitude>
    <centerlongitude>25.67</centerlongitude>
    <featuretype code="AA">Crater, craters</featuretype>
  </feature>
  <feature>
    <cleanName>Basin</cleanName>
    <target>MARS</target>
    <system>MARS</system>
    <diameter>15.53</diameter>
    <centerlatitude>17.82</centerlatitude>
    <centerlongitude>107</centerlongitude>
    <featuretype code="AA">Crater, craters</featuretype>
  </feature>
  <feature>
    <cleanName>Batoka</cleanName>
    <target>MARS</target>
    <system>MARS</system>
    <diameter>14.96</diameter>
    <centerlatitude>-7.55</centerlatitude>
    <centerlongitude>323.35</centerlongitude>
    <featuretype code="AA">Crater, craters</featuretype>
  </feature>
  <feature>
    <cleanName>Batos</cleanName>
    <target>MARS</target>
    <system>MARS</system>
    <diameter>17.33</diameter>
    <centerlatitude>21.5</centerlatitude>
    <centerlongitude>330.5</centerlongitude>
    <featuretype code="AA">Crater, craters</featuretype>
  </feature>
  <feature>
    <cleanName>Batson</cleanName>
    <target>MARS</target>
    <system>MARS</system>
    <diameter>75</diameter>
    <centerlatitude>-28.91</centerlatitude>
    <centerlongitude>84.15</centerlongitude>
    <featuretype code="AA">Crater, craters</featuretype>
  </feature>
  <feature>
    <cleanName>Baucau</cleanName>
    <target>MARS</target>
    <system>MARS</system>
    <diameter>17.94</diameter>
    <centerlatitude>-28.37</centerlatitude>
    <centerlongitude>304.9</centerlongitude>
    <featuretype code="AA">Crater, craters</featuretype>
  </feature>
  <feature>
    <cleanName>Baum</cleanName>
    <target>MARS</target>
    <system>MARS</system>
    <diameter>62</diameter>
    <centerlatitude>-24.72</centerlatitude>
    <centerlongitude>28.3</centerlongitude>
    <featuretype code="AA">Crater, craters</featuretype>
  </feature>
  <feature>
    <cleanName>Baykonyr</cleanName>
    <target>MARS</target>
    <system>MARS</system>
    <diameter>3.9</diameter>
    <centerlatitude>46.41</centerlatitude>
    <centerlongitude>132.68</centerlongitude>
    <featuretype code="AA">Crater, craters</featuretype>
  </feature>
  <feature>
    <cleanName>Bazas</cleanName>
    <target>MARS</target>
    <system>MARS</system>
    <diameter>16.43</diameter>
    <centerlatitude>-27.78</centerlatitude>
    <centerlongitude>93.38</centerlongitude>
    <featuretype code="AA">Crater, craters</featuretype>
  </feature>
  <feature>
    <cleanName>Becquerel</cleanName>
    <target>MARS</target>
    <system>MARS</system>
    <diameter>165.23</diameter>
    <centerlatitude>21.89</centerlatitude>
    <centerlongitude>352.06</centerlongitude>
    <featuretype code="AA">Crater, craters</featuretype>
  </feature>
  <feature>
    <cleanName>Beer</cleanName>
    <target>MARS</target>
    <system>MARS</system>
    <diameter>85.5</diameter>
    <centerlatitude>-14.47</centerlatitude>
    <centerlongitude>351.83</centerlongitude>
    <featuretype code="AA">Crater, craters</featuretype>
  </feature>
  <feature>
    <cleanName>Beloha</cleanName>
    <target>MARS</target>
    <system>MARS</system>
    <diameter>31.74</diameter>
    <centerlatitude>-39.58</centerlatitude>
    <centerlongitude>56.71</centerlongitude>
    <featuretype code="AA">Crater, craters</featuretype>
  </feature>
  <feature>
    <cleanName>Beltra</cleanName>
    <target>MARS</target>
    <system>MARS</system>
    <diameter>7.17</diameter>
    <centerlatitude>18.01</centerlatitude>
    <centerlongitude>102.4</centerlongitude>
    <featuretype code="AA">Crater, craters</featuretype>
  </feature>
  <feature>
    <cleanName>Belyov</cleanName>
    <target>MARS</target>
    <system>MARS</system>
    <diameter>0.2</diameter>
    <centerlatitude>-45.02</centerlatitude>
    <centerlongitude>201.99</centerlongitude>
    <featuretype code="AA">Crater, craters</featuretype>
  </feature>
  <feature>
    <cleanName>Belz</cleanName>
    <target>MARS</target>
    <system>MARS</system>
    <diameter>10.21</diameter>
    <centerlatitude>21.57</centerlatitude>
    <centerlongitude>316.77</centerlongitude>
    <featuretype code="AA">Crater, craters</featuretype>
  </feature>
  <feature>
    <cleanName>Bend</cleanName>
    <target>MARS</target>
    <system>MARS</system>
    <diameter>3.7</diameter>
    <centerlatitude>-22.4</centerlatitude>
    <centerlongitude>332.26</centerlongitude>
    <featuretype code="AA">Crater, craters</featuretype>
  </feature>
  <feature>
    <cleanName>Bentham</cleanName>
    <target>MARS</target>
    <system>MARS</system>
    <diameter>11.36</diameter>
    <centerlatitude>-55.78</centerlatitude>
    <centerlongitude>319.45</centerlongitude>
    <featuretype code="AA">Crater, craters</featuretype>
  </feature>
  <feature>
    <cleanName>Bentong</cleanName>
    <target>MARS</target>
    <system>MARS</system>
    <diameter>10.32</diameter>
    <centerlatitude>-22.31</centerlatitude>
    <centerlongitude>340.96</centerlongitude>
    <featuretype code="AA">Crater, craters</featuretype>
  </feature>
  <feature>
    <cleanName>Bernard</cleanName>
    <target>MARS</target>
    <system>MARS</system>
    <diameter>128.1</diameter>
    <centerlatitude>-23.24</centerlatitude>
    <centerlongitude>205.79</centerlongitude>
    <featuretype code="AA">Crater, craters</featuretype>
  </feature>
  <feature>
    <cleanName>Berseba</cleanName>
    <target>MARS</target>
    <system>MARS</system>
    <diameter>36.83</diameter>
    <centerlatitude>-4.4</centerlatitude>
    <centerlongitude>322.4</centerlongitude>
    <featuretype code="AA">Crater, craters</featuretype>
  </feature>
  <feature>
    <cleanName>Beruri</cleanName>
    <target>MARS</target>
    <system>MARS</system>
    <diameter>45.12</diameter>
    <centerlatitude>5.27</centerlatitude>
    <centerlongitude>81.24</centerlongitude>
    <featuretype code="AA">Crater, craters</featuretype>
  </feature>
  <feature>
    <cleanName>Betio</cleanName>
    <target>MARS</target>
    <system>MARS</system>
    <diameter>32.44</diameter>
    <centerlatitude>-23.13</centerlatitude>
    <centerlongitude>281.35</centerlongitude>
    <featuretype code="AA">Crater, craters</featuretype>
  </feature>
  <feature>
    <cleanName>Bhor</cleanName>
    <target>MARS</target>
    <system>MARS</system>
    <diameter>5.73</diameter>
    <centerlatitude>41.75</centerlatitude>
    <centerlongitude>134.53</centerlongitude>
    <featuretype code="AA">Crater, craters</featuretype>
  </feature>
  <feature>
    <cleanName>Bianchini</cleanName>
    <target>MARS</target>
    <system>MARS</system>
    <diameter>70.71</diameter>
    <centerlatitude>-63.85</centerlatitude>
    <centerlongitude>264.71</centerlongitude>
    <featuretype code="AA">Crater, craters</featuretype>
  </feature>
  <feature>
    <cleanName>Bigbee</cleanName>
    <target>MARS</target>
    <system>MARS</system>
    <diameter>20.86</diameter>
    <centerlatitude>-24.78</centerlatitude>
    <centerlongitude>325.25</centerlongitude>
    <featuretype code="AA">Crater, craters</featuretype>
  </feature>
  <feature>
    <cleanName>Bira</cleanName>
    <target>MARS</target>
    <system>MARS</system>
    <diameter>2.7</diameter>
    <centerlatitude>25.1</centerlatitude>
    <centerlongitude>314.46</centerlongitude>
    <featuretype code="AA">Crater, craters</featuretype>
  </feature>
  <feature>
    <cleanName>Bise</cleanName>
    <target>MARS</target>
    <system>MARS</system>
    <diameter>9.21</diameter>
    <centerlatitude>20.22</centerlatitude>
    <centerlongitude>303.17</centerlongitude>
    <featuretype code="AA">Crater, craters</featuretype>
  </feature>
  <feature>
    <cleanName>Bison</cleanName>
    <target>MARS</target>
    <system>MARS</system>
    <diameter>15.28</diameter>
    <centerlatitude>-26.31</centerlatitude>
    <centerlongitude>330.85</centerlongitude>
    <featuretype code="AA">Crater, craters</featuretype>
  </feature>
  <feature>
    <cleanName>Bjerknes</cleanName>
    <target>MARS</target>
    <system>MARS</system>
    <diameter>88.64</diameter>
    <centerlatitude>-43.01</centerlatitude>
    <centerlongitude>171.48</centerlongitude>
    <featuretype code="AA">Crater, craters</featuretype>
  </feature>
  <feature>
    <cleanName>Bland</cleanName>
    <target>MARS</target>
    <system>MARS</system>
    <diameter>6.63</diameter>
    <centerlatitude>18.3</centerlatitude>
    <centerlongitude>108.76</centerlongitude>
    <featuretype code="AA">Crater, craters</featuretype>
  </feature>
  <feature>
    <cleanName>Bled</cleanName>
    <target>MARS</target>
    <system>MARS</system>
    <diameter>7.69</diameter>
    <centerlatitude>21.58</centerlatitude>
    <centerlongitude>328.54</centerlongitude>
    <featuretype code="AA">Crater, craters</featuretype>
  </feature>
  <feature>
    <cleanName>Blitta</cleanName>
    <target>MARS</target>
    <system>MARS</system>
    <diameter>12.95</diameter>
    <centerlatitude>-25.9</centerlatitude>
    <centerlongitude>339.04</centerlongitude>
    <featuretype code="AA">Crater, craters</featuretype>
  </feature>
  <feature>
    <cleanName>Blois</cleanName>
    <target>MARS</target>
    <system>MARS</system>
    <diameter>11.58</diameter>
    <centerlatitude>23.6</centerlatitude>
    <centerlongitude>304.15</centerlongitude>
    <featuretype code="AA">Crater, craters</featuretype>
  </feature>
  <feature>
    <cleanName>Bluff</cleanName>
    <target>MARS</target>
    <system>MARS</system>
    <diameter>6.75</diameter>
    <centerlatitude>23.47</centerlatitude>
    <centerlongitude>110.03</centerlongitude>
    <featuretype code="AA">Crater, craters</featuretype>
  </feature>
  <feature>
    <cleanName>Blunck</cleanName>
    <target>MARS</target>
    <system>MARS</system>
    <diameter>66.49</diameter>
    <centerlatitude>-27.23</centerlatitude>
    <centerlongitude>323.1</centerlongitude>
    <featuretype code="AA">Crater, craters</featuretype>
  </feature>
  <feature>
    <cleanName>Boeddicker</cleanName>
    <target>MARS</target>
    <system>MARS</system>
    <diameter>107.12</diameter>
    <centerlatitude>-14.82</centerlatitude>
    <centerlongitude>162.49</centerlongitude>
    <featuretype code="AA">Crater, craters</featuretype>
  </feature>
  <feature>
    <cleanName>Bogia</cleanName>
    <target>MARS</target>
    <system>MARS</system>
    <diameter>37.68</diameter>
    <centerlatitude>-44.31</centerlatitude>
    <centerlongitude>83.27</centerlongitude>
    <featuretype code="AA">Crater, craters</featuretype>
  </feature>
  <feature>
    <cleanName>Bogra</cleanName>
    <target>MARS</target>
    <system>MARS</system>
    <diameter>21.31</diameter>
    <centerlatitude>-24.16</centerlatitude>
    <centerlongitude>331.2</centerlongitude>
    <featuretype code="AA">Crater, craters</featuretype>
  </feature>
  <feature>
    <cleanName>Bok</cleanName>
    <target>MARS</target>
    <system>MARS</system>
    <diameter>7.34</diameter>
    <centerlatitude>20.58</centerlatitude>
    <centerlongitude>328.4</centerlongitude>
    <featuretype code="AA">Crater, craters</featuretype>
  </feature>
  <feature>
    <cleanName>Bole</cleanName>
    <target>MARS</target>
    <system>MARS</system>
    <diameter>8.54</diameter>
    <centerlatitude>25.35</centerlatitude>
    <centerlongitude>306.01</centerlongitude>
    <featuretype code="AA">Crater, craters</featuretype>
  </feature>
  <feature>
    <cleanName>Bombala</cleanName>
    <target>MARS</target>
    <system>MARS</system>
    <diameter>37.14</diameter>
    <centerlatitude>-27.6</centerlatitude>
    <centerlongitude>106.13</centerlongitude>
    <featuretype code="AA">Crater, craters</featuretype>
  </feature>
  <feature>
    <cleanName>Bond</cleanName>
    <target>MARS</target>
    <system>MARS</system>
    <diameter>104.69</diameter>
    <centerlatitude>-32.79</centerlatitude>
    <centerlongitude>324.06</centerlongitude>
    <featuretype code="AA">Crater, craters</featuretype>
  </feature>
  <feature>
    <cleanName>Bonestell</cleanName>
    <target>MARS</target>
    <system>MARS</system>
    <diameter>40.67</diameter>
    <centerlatitude>42</centerlatitude>
    <centerlongitude>329.61</centerlongitude>
    <featuretype code="AA">Crater, craters</featuretype>
  </feature>
  <feature>
    <cleanName>Boola</cleanName>
    <target>MARS</target>
    <system>MARS</system>
    <diameter>17.25</diameter>
    <centerlatitude>81.26</centerlatitude>
    <centerlongitude>254.81</centerlongitude>
    <featuretype code="AA">Crater, craters</featuretype>
  </feature>
  <feature>
    <cleanName>Bopolu</cleanName>
    <target>MARS</target>
    <system>MARS</system>
    <diameter>18.89</diameter>
    <centerlatitude>-2.96</centerlatitude>
    <centerlongitude>353.7</centerlongitude>
    <featuretype code="AA">Crater, craters</featuretype>
  </feature>
  <feature>
    <cleanName>Bor</cleanName>
    <target>MARS</target>
    <system>MARS</system>
    <diameter>4.28</diameter>
    <centerlatitude>18.17</centerlatitude>
    <centerlongitude>326.32</centerlongitude>
    <featuretype code="AA">Crater, craters</featuretype>
  </feature>
  <feature>
    <cleanName>Bordeaux</cleanName>
    <target>MARS</target>
    <system>MARS</system>
    <diameter>2.01</diameter>
    <centerlatitude>23.13</centerlatitude>
    <centerlongitude>311.11</centerlongitude>
    <featuretype code="AA">Crater, craters</featuretype>
  </feature>
  <feature>
    <cleanName>Boru</cleanName>
    <target>MARS</target>
    <system>MARS</system>
    <diameter>10.87</diameter>
    <centerlatitude>-24.34</centerlatitude>
    <centerlongitude>332.13</centerlongitude>
    <featuretype code="AA">Crater, craters</featuretype>
  </feature>
  <feature>
    <cleanName>Bouguer</cleanName>
    <target>MARS</target>
    <system>MARS</system>
    <diameter>107.78</diameter>
    <centerlatitude>-18.46</centerlatitude>
    <centerlongitude>27.27</centerlongitude>
    <featuretype code="AA">Crater, craters</featuretype>
  </feature>
  <feature>
    <cleanName>Boulia</cleanName>
    <target>MARS</target>
    <system>MARS</system>
    <diameter>9.99</diameter>
    <centerlatitude>-22.89</centerlatitude>
    <centerlongitude>111.32</centerlongitude>
    <featuretype code="AA">Crater, craters</featuretype>
  </feature>
  <feature>
    <cleanName>Bozkir</cleanName>
    <target>MARS</target>
    <system>MARS</system>
    <diameter>79.89</diameter>
    <centerlatitude>-44.14</centerlatitude>
    <centerlongitude>327.82</centerlongitude>
    <featuretype code="AA">Crater, craters</featuretype>
  </feature>
  <feature>
    <cleanName>Bradbury</cleanName>
    <target>MARS</target>
    <system>MARS</system>
    <diameter>63.2</diameter>
    <centerlatitude>2.58</centerlatitude>
    <centerlongitude>85.8</centerlongitude>
    <featuretype code="AA">Crater, craters</featuretype>
  </feature>
  <feature>
    <cleanName>Brashear</cleanName>
    <target>MARS</target>
    <system>MARS</system>
    <diameter>77.45</diameter>
    <centerlatitude>-53.81</centerlatitude>
    <centerlongitude>240.97</centerlongitude>
    <featuretype code="AA">Crater, craters</featuretype>
  </feature>
  <feature>
    <cleanName>Bree</cleanName>
    <target>MARS</target>
    <system>MARS</system>
    <diameter>28.79</diameter>
    <centerlatitude>37.64</centerlatitude>
    <centerlongitude>149.63</centerlongitude>
    <featuretype code="AA">Crater, craters</featuretype>
  </feature>
  <feature>
    <cleanName>Bremerhaven</cleanName>
    <target>MARS</target>
    <system>MARS</system>
    <diameter>2.69</diameter>
    <centerlatitude>23.7</centerlatitude>
    <centerlongitude>311.36</centerlongitude>
    <featuretype code="AA">Crater, craters</featuretype>
  </feature>
  <feature>
    <cleanName>Briault</cleanName>
    <target>MARS</target>
    <system>MARS</system>
    <diameter>93.06</diameter>
    <centerlatitude>-9.98</centerlatitude>
    <centerlongitude>89.68</centerlongitude>
    <featuretype code="AA">Crater, craters</featuretype>
  </feature>
  <feature>
    <cleanName>Bridgetown</cleanName>
    <target>MARS</target>
    <system>MARS</system>
    <diameter>1.57</diameter>
    <centerlatitude>21.9</centerlatitude>
    <centerlongitude>312.92</centerlongitude>
    <featuretype code="AA">Crater, craters</featuretype>
  </feature>
  <feature>
    <cleanName>Bristol</cleanName>
    <target>MARS</target>
    <system>MARS</system>
    <diameter>3</diameter>
    <centerlatitude>22.09</centerlatitude>
    <centerlongitude>313.07</centerlongitude>
    <featuretype code="AA">Crater, craters</featuretype>
  </feature>
  <feature>
    <cleanName>Broach</cleanName>
    <target>MARS</target>
    <system>MARS</system>
    <diameter>11.31</diameter>
    <centerlatitude>23.51</centerlatitude>
    <centerlongitude>303.11</centerlongitude>
    <featuretype code="AA">Crater, craters</featuretype>
  </feature>
  <feature>
    <cleanName>Bronkhorst</cleanName>
    <target>MARS</target>
    <system>MARS</system>
    <diameter>17.75</diameter>
    <centerlatitude>-10.7</centerlatitude>
    <centerlongitude>304.79</centerlongitude>
    <featuretype code="AA">Crater, craters</featuretype>
  </feature>
  <feature>
    <cleanName>Brush</cleanName>
    <target>MARS</target>
    <system>MARS</system>
    <diameter>6.49</diameter>
    <centerlatitude>21.7</centerlatitude>
    <centerlongitude>111.34</centerlongitude>
    <featuretype code="AA">Crater, craters</featuretype>
  </feature>
  <feature>
    <cleanName>Bulhar</cleanName>
    <target>MARS</target>
    <system>MARS</system>
    <diameter>18.24</diameter>
    <centerlatitude>50.36</centerlatitude>
    <centerlongitude>134.52</centerlongitude>
    <featuretype code="AA">Crater, craters</featuretype>
  </feature>
  <feature>
    <cleanName>Bunge</cleanName>
    <target>MARS</target>
    <system>MARS</system>
    <diameter>70.83</diameter>
    <centerlatitude>-33.82</centerlatitude>
    <centerlongitude>311.41</centerlongitude>
    <featuretype code="AA">Crater, craters</featuretype>
  </feature>
  <feature>
    <cleanName>Bunnik</cleanName>
    <target>MARS</target>
    <system>MARS</system>
    <diameter>29</diameter>
    <centerlatitude>-38.07</centerlatitude>
    <centerlongitude>217.9</centerlongitude>
    <featuretype code="AA">Crater, craters</featuretype>
  </feature>
  <feature>
    <cleanName>Burroughs</cleanName>
    <target>MARS</target>
    <system>MARS</system>
    <diameter>112.69</diameter>
    <centerlatitude>-72.29</centerlatitude>
    <centerlongitude>117.1</centerlongitude>
    <featuretype code="AA">Crater, craters</featuretype>
  </feature>
  <feature>
    <cleanName>Burton</cleanName>
    <target>MARS</target>
    <system>MARS</system>
    <diameter>119.26</diameter>
    <centerlatitude>-13.88</centerlatitude>
    <centerlongitude>203.67</centerlongitude>
    <featuretype code="AA">Crater, craters</featuretype>
  </feature>
  <feature>
    <cleanName>Buta</cleanName>
    <target>MARS</target>
    <system>MARS</system>
    <diameter>11.27</diameter>
    <centerlatitude>-23.25</centerlatitude>
    <centerlongitude>327.59</centerlongitude>
    <featuretype code="AA">Crater, craters</featuretype>
  </feature>
  <feature>
    <cleanName>Butte</cleanName>
    <target>MARS</target>
    <system>MARS</system>
    <diameter>12.55</diameter>
    <centerlatitude>-5.08</centerlatitude>
    <centerlongitude>321.09</centerlongitude>
    <featuretype code="AA">Crater, craters</featuretype>
  </feature>
  <feature>
    <cleanName>Byala</cleanName>
    <target>MARS</target>
    <system>MARS</system>
    <diameter>26.23</diameter>
    <centerlatitude>-25.73</centerlatitude>
    <centerlongitude>293.53</centerlongitude>
    <featuretype code="AA">Crater, craters</featuretype>
  </feature>
  <feature>
    <cleanName>Byrd</cleanName>
    <target>MARS</target>
    <system>MARS</system>
    <diameter>123.27</diameter>
    <centerlatitude>-65.22</centerlatitude>
    <centerlongitude>127.83</centerlongitude>
    <featuretype code="AA">Crater, craters</featuretype>
  </feature>
  <feature>
    <cleanName>Byske</cleanName>
    <target>MARS</target>
    <system>MARS</system>
    <diameter>12.56</diameter>
    <centerlatitude>-4.97</centerlatitude>
    <centerlongitude>326.05</centerlongitude>
    <featuretype code="AA">Crater, craters</featuretype>
  </feature>
  <feature>
    <cleanName>Cadiz</cleanName>
    <target>MARS</target>
    <system>MARS</system>
    <diameter>1.38</diameter>
    <centerlatitude>23.15</centerlatitude>
    <centerlongitude>310.97</centerlongitude>
    <featuretype code="AA">Crater, craters</featuretype>
  </feature>
  <feature>
    <cleanName>Cagli</cleanName>
    <target>MARS</target>
    <system>MARS</system>
    <diameter>28.16</diameter>
    <centerlatitude>4.73</centerlatitude>
    <centerlongitude>356.45</centerlongitude>
    <featuretype code="AA">Crater, craters</featuretype>
  </feature>
  <feature>
    <cleanName>Cairns</cleanName>
    <target>MARS</target>
    <system>MARS</system>
    <diameter>8.73</diameter>
    <centerlatitude>23.56</centerlatitude>
    <centerlongitude>312.54</centerlongitude>
    <featuretype code="AA">Crater, craters</featuretype>
  </feature>
  <feature>
    <cleanName>Calahorra</cleanName>
    <target>MARS</target>
    <system>MARS</system>
    <diameter>34.22</diameter>
    <centerlatitude>26.46</centerlatitude>
    <centerlongitude>321.35</centerlongitude>
    <featuretype code="AA">Crater, craters</featuretype>
  </feature>
  <feature>
    <cleanName>Calamar</cleanName>
    <target>MARS</target>
    <system>MARS</system>
    <diameter>7.21</diameter>
    <centerlatitude>18.27</centerlatitude>
    <centerlongitude>305.13</centerlongitude>
    <featuretype code="AA">Crater, craters</featuretype>
  </feature>
  <feature>
    <cleanName>Calbe</cleanName>
    <target>MARS</target>
    <system>MARS</system>
    <diameter>13.14</diameter>
    <centerlatitude>-25.14</centerlatitude>
    <centerlongitude>331.13</centerlongitude>
    <featuretype code="AA">Crater, craters</featuretype>
  </feature>
  <feature>
    <cleanName>Camargo</cleanName>
    <target>MARS</target>
    <system>MARS</system>
    <diameter>4.77</diameter>
    <centerlatitude>17.7</centerlatitude>
    <centerlongitude>109.64</centerlongitude>
    <featuretype code="AA">Crater, craters</featuretype>
  </feature>
  <feature>
    <cleanName>Camichel</cleanName>
    <target>MARS</target>
    <system>MARS</system>
    <diameter>65.26</diameter>
    <centerlatitude>2.26</centerlatitude>
    <centerlongitude>308.39</centerlongitude>
    <featuretype code="AA">Crater, craters</featuretype>
  </feature>
  <feature>
    <cleanName>Camiling</cleanName>
    <target>MARS</target>
    <system>MARS</system>
    <diameter>21.91</diameter>
    <centerlatitude>-0.71</centerlatitude>
    <centerlongitude>322</centerlongitude>
    <featuretype code="AA">Crater, craters</featuretype>
  </feature>
  <feature>
    <cleanName>Camiri</cleanName>
    <target>MARS</target>
    <system>MARS</system>
    <diameter>31.36</diameter>
    <centerlatitude>-44.65</centerlatitude>
    <centerlongitude>317.83</centerlongitude>
    <featuretype code="AA">Crater, craters</featuretype>
  </feature>
  <feature>
    <cleanName>Campbell</cleanName>
    <target>MARS</target>
    <system>MARS</system>
    <diameter>125.26</diameter>
    <centerlatitude>-54.25</centerlatitude>
    <centerlongitude>165.58</centerlongitude>
    <featuretype code="AA">Crater, craters</featuretype>
  </feature>
  <feature>
    <cleanName>Campos</cleanName>
    <target>MARS</target>
    <system>MARS</system>
    <diameter>8.25</diameter>
    <centerlatitude>-21.8</centerlatitude>
    <centerlongitude>332.19</centerlongitude>
    <featuretype code="AA">Crater, craters</featuretype>
  </feature>
  <feature>
    <cleanName>Can</cleanName>
    <target>MARS</target>
    <system>MARS</system>
    <diameter>8.62</diameter>
    <centerlatitude>48.21</centerlatitude>
    <centerlongitude>345.41</centerlongitude>
    <featuretype code="AA">Crater, craters</featuretype>
  </feature>
  <feature>
    <cleanName>Canala</cleanName>
    <target>MARS</target>
    <system>MARS</system>
    <diameter>12</diameter>
    <centerlatitude>24.35</centerlatitude>
    <centerlongitude>279.92</centerlongitude>
    <featuretype code="AA">Crater, craters</featuretype>
  </feature>
  <feature>
    <cleanName>Canas</cleanName>
    <target>MARS</target>
    <system>MARS</system>
    <diameter>41.52</diameter>
    <centerlatitude>-31.19</centerlatitude>
    <centerlongitude>89.86</centerlongitude>
    <featuretype code="AA">Crater, craters</featuretype>
  </feature>
  <feature>
    <cleanName>Canaveral</cleanName>
    <target>MARS</target>
    <system>MARS</system>
    <diameter>3.18</diameter>
    <centerlatitude>46.83</centerlatitude>
    <centerlongitude>135.83</centerlongitude>
    <featuretype code="AA">Crater, craters</featuretype>
  </feature>
  <feature>
    <cleanName>Canberra</cleanName>
    <target>MARS</target>
    <system>MARS</system>
    <diameter>3.1</diameter>
    <centerlatitude>47.2</centerlatitude>
    <centerlongitude>132.66</centerlongitude>
    <featuretype code="AA">Crater, craters</featuretype>
  </feature>
  <feature>
    <cleanName>Cangwu</cleanName>
    <target>MARS</target>
    <system>MARS</system>
    <diameter>13.64</diameter>
    <centerlatitude>41.85</centerlatitude>
    <centerlongitude>270.41</centerlongitude>
    <featuretype code="AA">Crater, craters</featuretype>
  </feature>
  <feature>
    <cleanName>Canillo</cleanName>
    <target>MARS</target>
    <system>MARS</system>
    <diameter>33.93</diameter>
    <centerlatitude>10.23</centerlatitude>
    <centerlongitude>116.48</centerlongitude>
    <featuretype code="AA">Crater, craters</featuretype>
  </feature>
  <feature>
    <cleanName>Cankuzo</cleanName>
    <target>MARS</target>
    <system>MARS</system>
    <diameter>48.45</diameter>
    <centerlatitude>-19.42</centerlatitude>
    <centerlongitude>52.03</centerlongitude>
    <featuretype code="AA">Crater, craters</featuretype>
  </feature>
  <feature>
    <cleanName>Canso</cleanName>
    <target>MARS</target>
    <system>MARS</system>
    <diameter>26.42</diameter>
    <centerlatitude>21.36</centerlatitude>
    <centerlongitude>299.38</centerlongitude>
    <featuretype code="AA">Crater, craters</featuretype>
  </feature>
  <feature>
    <cleanName>Cantoura</cleanName>
    <target>MARS</target>
    <system>MARS</system>
    <diameter>51.59</diameter>
    <centerlatitude>14.84</centerlatitude>
    <centerlongitude>308.28</centerlongitude>
    <featuretype code="AA">Crater, craters</featuretype>
  </feature>
  <feature>
    <cleanName>Capen</cleanName>
    <target>MARS</target>
    <system>MARS</system>
    <diameter>68.99</diameter>
    <centerlatitude>6.58</centerlatitude>
    <centerlongitude>14.31</centerlongitude>
    <featuretype code="AA">Crater, craters</featuretype>
  </feature>
  <feature>
    <cleanName>Cardona</cleanName>
    <target>MARS</target>
    <system>MARS</system>
    <diameter>13.7</diameter>
    <centerlatitude>-19.65</centerlatitude>
    <centerlongitude>328.02</centerlongitude>
    <featuretype code="AA">Crater, craters</featuretype>
  </feature>
  <feature>
    <cleanName>Cartago</cleanName>
    <target>MARS</target>
    <system>MARS</system>
    <diameter>36.57</diameter>
    <centerlatitude>-23.25</centerlatitude>
    <centerlongitude>342.03</centerlongitude>
    <featuretype code="AA">Crater, craters</featuretype>
  </feature>
  <feature>
    <cleanName>Cassini</cleanName>
    <target>MARS</target>
    <system>MARS</system>
    <diameter>408.23</diameter>
    <centerlatitude>23.35</centerlatitude>
    <centerlongitude>32.11</centerlongitude>
    <featuretype code="AA">Crater, craters</featuretype>
  </feature>
  <feature>
    <cleanName>Castril</cleanName>
    <target>MARS</target>
    <system>MARS</system>
    <diameter>2.19</diameter>
    <centerlatitude>-14.7</centerlatitude>
    <centerlongitude>175.3</centerlongitude>
    <featuretype code="AA">Crater, craters</featuretype>
  </feature>
  <feature>
    <cleanName>Catota</cleanName>
    <target>MARS</target>
    <system>MARS</system>
    <diameter>1.3</diameter>
    <centerlatitude>51.67</centerlatitude>
    <centerlongitude>333.02</centerlongitude>
    <featuretype code="AA">Crater, craters</featuretype>
  </feature>
  <feature>
    <cleanName>Cave</cleanName>
    <target>MARS</target>
    <system>MARS</system>
    <diameter>8.2</diameter>
    <centerlatitude>21.61</centerlatitude>
    <centerlongitude>324.36</centerlongitude>
    <featuretype code="AA">Crater, craters</featuretype>
  </feature>
  <feature>
    <cleanName>Caxias</cleanName>
    <target>MARS</target>
    <system>MARS</system>
    <diameter>25.88</diameter>
    <centerlatitude>-28.95</centerlatitude>
    <centerlongitude>259.32</centerlongitude>
    <featuretype code="AA">Crater, craters</featuretype>
  </feature>
  <feature>
    <cleanName>Cayon</cleanName>
    <target>MARS</target>
    <system>MARS</system>
    <diameter>27.31</diameter>
    <centerlatitude>-35.93</centerlatitude>
    <centerlongitude>113.62</centerlongitude>
    <featuretype code="AA">Crater, craters</featuretype>
  </feature>
  <feature>
    <cleanName>Cefalu</cleanName>
    <target>MARS</target>
    <system>MARS</system>
    <diameter>5.53</diameter>
    <centerlatitude>23.64</centerlatitude>
    <centerlongitude>321.11</centerlongitude>
    <featuretype code="AA">Crater, craters</featuretype>
  </feature>
  <feature>
    <cleanName>Cerulli</cleanName>
    <target>MARS</target>
    <system>MARS</system>
    <diameter>114.28</diameter>
    <centerlatitude>32.2</centerlatitude>
    <centerlongitude>22.12</centerlongitude>
    <featuretype code="AA">Crater, craters</featuretype>
  </feature>
  <feature>
    <cleanName>Chafe</cleanName>
    <target>MARS</target>
    <system>MARS</system>
    <diameter>4.67</diameter>
    <centerlatitude>15.1</centerlatitude>
    <centerlongitude>102.41</centerlongitude>
    <featuretype code="AA">Crater, craters</featuretype>
  </feature>
  <feature>
    <cleanName>Chaman</cleanName>
    <target>MARS</target>
    <system>MARS</system>
    <diameter>47.92</diameter>
    <centerlatitude>-60.86</centerlatitude>
    <centerlongitude>50.96</centerlongitude>
    <featuretype code="AA">Crater, craters</featuretype>
  </feature>
  <feature>
    <cleanName>Chamberlin</cleanName>
    <target>MARS</target>
    <system>MARS</system>
    <diameter>120.25</diameter>
    <centerlatitude>-65.84</centerlatitude>
    <centerlongitude>235.71</centerlongitude>
    <featuretype code="AA">Crater, craters</featuretype>
  </feature>
  <feature>
    <cleanName>Changsong</cleanName>
    <target>MARS</target>
    <system>MARS</system>
    <diameter>33.54</diameter>
    <centerlatitude>23.47</centerlatitude>
    <centerlongitude>302.66</centerlongitude>
    <featuretype code="AA">Crater, craters</featuretype>
  </feature>
  <feature>
    <cleanName>Chapais</cleanName>
    <target>MARS</target>
    <system>MARS</system>
    <diameter>36.67</diameter>
    <centerlatitude>-22.35</centerlatitude>
    <centerlongitude>339.45</centerlongitude>
    <featuretype code="AA">Crater, craters</featuretype>
  </feature>
  <feature>
    <cleanName>Charleston</cleanName>
    <target>MARS</target>
    <system>MARS</system>
    <diameter>1.96</diameter>
    <centerlatitude>22.63</centerlatitude>
    <centerlongitude>312.2</centerlongitude>
    <featuretype code="AA">Crater, craters</featuretype>
  </feature>
  <feature>
    <cleanName>Charlier</cleanName>
    <target>MARS</target>
    <system>MARS</system>
    <diameter>106.28</diameter>
    <centerlatitude>-68.56</centerlatitude>
    <centerlongitude>191.53</centerlongitude>
    <featuretype code="AA">Crater, craters</featuretype>
  </feature>
  <feature>
    <cleanName>Charlieu</cleanName>
    <target>MARS</target>
    <system>MARS</system>
    <diameter>18.63</diameter>
    <centerlatitude>38.15</centerlatitude>
    <centerlongitude>276.01</centerlongitude>
    <featuretype code="AA">Crater, craters</featuretype>
  </feature>
  <feature>
    <cleanName>Chatturat</cleanName>
    <target>MARS</target>
    <system>MARS</system>
    <diameter>7.84</diameter>
    <centerlatitude>35.38</centerlatitude>
    <centerlongitude>265.06</centerlongitude>
    <featuretype code="AA">Crater, craters</featuretype>
  </feature>
  <feature>
    <cleanName>Chauk</cleanName>
    <target>MARS</target>
    <system>MARS</system>
    <diameter>9.97</diameter>
    <centerlatitude>23.35</centerlatitude>
    <centerlongitude>304.09</centerlongitude>
    <featuretype code="AA">Crater, craters</featuretype>
  </feature>
  <feature>
    <cleanName>Cheb</cleanName>
    <target>MARS</target>
    <system>MARS</system>
    <diameter>8.28</diameter>
    <centerlatitude>-24.2</centerlatitude>
    <centerlongitude>340.56</centerlongitude>
    <featuretype code="AA">Crater, craters</featuretype>
  </feature>
  <feature>
    <cleanName>Chefu</cleanName>
    <target>MARS</target>
    <system>MARS</system>
    <diameter>11.27</diameter>
    <centerlatitude>-22.91</centerlatitude>
    <centerlongitude>112.24</centerlongitude>
    <featuretype code="AA">Crater, craters</featuretype>
  </feature>
  <feature>
    <cleanName>Chekalin</cleanName>
    <target>MARS</target>
    <system>MARS</system>
    <diameter>87.78</diameter>
    <centerlatitude>-24.28</centerlatitude>
    <centerlongitude>333.19</centerlongitude>
    <featuretype code="AA">Crater, craters</featuretype>
  </feature>
  <feature>
    <cleanName>Chia</cleanName>
    <target>MARS</target>
    <system>MARS</system>
    <diameter>91.91</diameter>
    <centerlatitude>1.57</centerlatitude>
    <centerlongitude>300.35</centerlongitude>
    <featuretype code="AA">Crater, craters</featuretype>
  </feature>
  <feature>
    <cleanName>Chimbote</cleanName>
    <target>MARS</target>
    <system>MARS</system>
    <diameter>62.86</diameter>
    <centerlatitude>-1.42</centerlatitude>
    <centerlongitude>320.32</centerlongitude>
    <featuretype code="AA">Crater, craters</featuretype>
  </feature>
  <feature>
    <cleanName>Chincoteague</cleanName>
    <target>MARS</target>
    <system>MARS</system>
    <diameter>34.03</diameter>
    <centerlatitude>41.2</centerlatitude>
    <centerlongitude>124.12</centerlongitude>
    <featuretype code="AA">Crater, craters</featuretype>
  </feature>
  <feature>
    <cleanName>Chinju</cleanName>
    <target>MARS</target>
    <system>MARS</system>
    <diameter>65.71</diameter>
    <centerlatitude>-4.52</centerlatitude>
    <centerlongitude>317.86</centerlongitude>
    <featuretype code="AA">Crater, craters</featuretype>
  </feature>
  <feature>
    <cleanName>Chinook</cleanName>
    <target>MARS</target>
    <system>MARS</system>
    <diameter>18.1</diameter>
    <centerlatitude>22.5</centerlatitude>
    <centerlongitude>304.54</centerlongitude>
    <featuretype code="AA">Crater, craters</featuretype>
  </feature>
  <feature>
    <cleanName>Chive</cleanName>
    <target>MARS</target>
    <system>MARS</system>
    <diameter>9.1</diameter>
    <centerlatitude>21.68</centerlatitude>
    <centerlongitude>303.99</centerlongitude>
    <featuretype code="AA">Crater, craters</featuretype>
  </feature>
  <feature>
    <cleanName>Choctaw</cleanName>
    <target>MARS</target>
    <system>MARS</system>
    <diameter>23.96</diameter>
    <centerlatitude>-41.19</centerlatitude>
    <centerlongitude>322.76</centerlongitude>
    <featuretype code="AA">Crater, craters</featuretype>
  </feature>
  <feature>
    <cleanName>Chom</cleanName>
    <target>MARS</target>
    <system>MARS</system>
    <diameter>5.58</diameter>
    <centerlatitude>38.57</centerlatitude>
    <centerlongitude>357.48</centerlongitude>
    <featuretype code="AA">Crater, craters</featuretype>
  </feature>
  <feature>
    <cleanName>Choyr</cleanName>
    <target>MARS</target>
    <system>MARS</system>
    <diameter>36.42</diameter>
    <centerlatitude>-32.43</centerlatitude>
    <centerlongitude>18.72</centerlongitude>
    <featuretype code="AA">Crater, craters</featuretype>
  </feature>
  <feature>
    <cleanName>Chukhung</cleanName>
    <target>MARS</target>
    <system>MARS</system>
    <diameter>45</diameter>
    <centerlatitude>38.47</centerlatitude>
    <centerlongitude>287.58</centerlongitude>
    <featuretype code="AA">Crater, craters</featuretype>
  </feature>
  <feature>
    <cleanName>Chupadero</cleanName>
    <target>MARS</target>
    <system>MARS</system>
    <diameter>8.04</diameter>
    <centerlatitude>6.13</centerlatitude>
    <centerlongitude>83.43</centerlongitude>
    <featuretype code="AA">Crater, craters</featuretype>
  </feature>
  <feature>
    <cleanName>Chur</cleanName>
    <target>MARS</target>
    <system>MARS</system>
    <diameter>4.39</diameter>
    <centerlatitude>16.93</centerlatitude>
    <centerlongitude>330.69</centerlongitude>
    <featuretype code="AA">Crater, craters</featuretype>
  </feature>
  <feature>
    <cleanName>Cilaos</cleanName>
    <target>MARS</target>
    <system>MARS</system>
    <diameter>21.4</diameter>
    <centerlatitude>-35.71</centerlatitude>
    <centerlongitude>129.48</centerlongitude>
    <featuretype code="AA">Crater, craters</featuretype>
  </feature>
  <feature>
    <cleanName>Circle</cleanName>
    <target>MARS</target>
    <system>MARS</system>
    <diameter>11.8</diameter>
    <centerlatitude>-22.17</centerlatitude>
    <centerlongitude>334.47</centerlongitude>
    <featuretype code="AA">Crater, craters</featuretype>
  </feature>
  <feature>
    <cleanName>Clark</cleanName>
    <target>MARS</target>
    <system>MARS</system>
    <diameter>97.5</diameter>
    <centerlatitude>-55.14</centerlatitude>
    <centerlongitude>226.8</centerlongitude>
    <featuretype code="AA">Crater, craters</featuretype>
  </feature>
  <feature>
    <cleanName>Clogh</cleanName>
    <target>MARS</target>
    <system>MARS</system>
    <diameter>11.2</diameter>
    <centerlatitude>20.56</centerlatitude>
    <centerlongitude>312.33</centerlongitude>
    <featuretype code="AA">Crater, craters</featuretype>
  </feature>
  <feature>
    <cleanName>Clova</cleanName>
    <target>MARS</target>
    <system>MARS</system>
    <diameter>7.75</diameter>
    <centerlatitude>21.47</centerlatitude>
    <centerlongitude>307.95</centerlongitude>
    <featuretype code="AA">Crater, craters</featuretype>
  </feature>
  <feature>
    <cleanName>Cluny</cleanName>
    <target>MARS</target>
    <system>MARS</system>
    <diameter>14.84</diameter>
    <centerlatitude>-23.86</centerlatitude>
    <centerlongitude>332.7</centerlongitude>
    <featuretype code="AA">Crater, craters</featuretype>
  </feature>
  <feature>
    <cleanName>Cobalt</cleanName>
    <target>MARS</target>
    <system>MARS</system>
    <diameter>10.53</diameter>
    <centerlatitude>-25.79</centerlatitude>
    <centerlongitude>332.97</centerlongitude>
    <featuretype code="AA">Crater, craters</featuretype>
  </feature>
  <feature>
    <cleanName>Coblentz</cleanName>
    <target>MARS</target>
    <system>MARS</system>
    <diameter>101.75</diameter>
    <centerlatitude>-54.9</centerlatitude>
    <centerlongitude>269.69</centerlongitude>
    <featuretype code="AA">Crater, craters</featuretype>
  </feature>
  <feature>
    <cleanName>Cobres</cleanName>
    <target>MARS</target>
    <system>MARS</system>
    <diameter>93.76</diameter>
    <centerlatitude>-11.7</centerlatitude>
    <centerlongitude>206.4</centerlongitude>
    <featuretype code="AA">Crater, craters</featuretype>
  </feature>
  <feature>
    <cleanName>Coimbra</cleanName>
    <target>MARS</target>
    <system>MARS</system>
    <diameter>34.53</diameter>
    <centerlatitude>4.18</centerlatitude>
    <centerlongitude>354.69</centerlongitude>
    <featuretype code="AA">Crater, craters</featuretype>
  </feature>
  <feature>
    <cleanName>Colon</cleanName>
    <target>MARS</target>
    <system>MARS</system>
    <diameter>1.36</diameter>
    <centerlatitude>22.75</centerlatitude>
    <centerlongitude>312.93</centerlongitude>
    <featuretype code="AA">Crater, craters</featuretype>
  </feature>
  <feature>
    <cleanName>Columbus</cleanName>
    <target>MARS</target>
    <system>MARS</system>
    <diameter>112.6</diameter>
    <centerlatitude>-29.29</centerlatitude>
    <centerlongitude>194.02</centerlongitude>
    <featuretype code="AA">Crater, craters</featuretype>
  </feature>
  <feature>
    <cleanName>Comas Sola</cleanName>
    <target>MARS</target>
    <system>MARS</system>
    <diameter>120.24</diameter>
    <centerlatitude>-19.59</centerlatitude>
    <centerlongitude>201.49</centerlongitude>
    <featuretype code="AA">Crater, craters</featuretype>
  </feature>
  <feature>
    <cleanName>Conches</cleanName>
    <target>MARS</target>
    <system>MARS</system>
    <diameter>20.89</diameter>
    <centerlatitude>-4.22</centerlatitude>
    <centerlongitude>325.8</centerlongitude>
    <featuretype code="AA">Crater, craters</featuretype>
  </feature>
  <feature>
    <cleanName>Concord</cleanName>
    <target>MARS</target>
    <system>MARS</system>
    <diameter>20.46</diameter>
    <centerlatitude>16.53</centerlatitude>
    <centerlongitude>325.98</centerlongitude>
    <featuretype code="AA">Crater, craters</featuretype>
  </feature>
  <feature>
    <cleanName>Cooma</cleanName>
    <target>MARS</target>
    <system>MARS</system>
    <diameter>17.85</diameter>
    <centerlatitude>-23.69</centerlatitude>
    <centerlongitude>251.65</centerlongitude>
    <featuretype code="AA">Crater, craters</featuretype>
  </feature>
  <feature>
    <cleanName>Copernicus</cleanName>
    <target>MARS</target>
    <system>MARS</system>
    <diameter>301.83</diameter>
    <centerlatitude>-48.84</centerlatitude>
    <centerlongitude>191.17</centerlongitude>
    <featuretype code="AA">Crater, craters</featuretype>
  </feature>
  <feature>
    <cleanName>Corby</cleanName>
    <target>MARS</target>
    <system>MARS</system>
    <diameter>6.62</diameter>
    <centerlatitude>42.88</centerlatitude>
    <centerlongitude>137.56</centerlongitude>
    <featuretype code="AA">Crater, craters</featuretype>
  </feature>
  <feature>
    <cleanName>Corinto</cleanName>
    <target>MARS</target>
    <system>MARS</system>
    <diameter>13.69</diameter>
    <centerlatitude>16.95</centerlatitude>
    <centerlongitude>141.71</centerlongitude>
    <featuretype code="AA">Crater, craters</featuretype>
  </feature>
  <feature>
    <cleanName>Corozal</cleanName>
    <target>MARS</target>
    <system>MARS</system>
    <diameter>8.33</diameter>
    <centerlatitude>-38.79</centerlatitude>
    <centerlongitude>159.42</centerlongitude>
    <featuretype code="AA">Crater, craters</featuretype>
  </feature>
  <feature>
    <cleanName>Cost</cleanName>
    <target>MARS</target>
    <system>MARS</system>
    <diameter>11.07</diameter>
    <centerlatitude>14.98</centerlatitude>
    <centerlongitude>104.02</centerlongitude>
    <featuretype code="AA">Crater, craters</featuretype>
  </feature>
  <feature>
    <cleanName>Cray</cleanName>
    <target>MARS</target>
    <system>MARS</system>
    <diameter>6.98</diameter>
    <centerlatitude>44.1</centerlatitude>
    <centerlongitude>343.88</centerlongitude>
    <featuretype code="AA">Crater, craters</featuretype>
  </feature>
  <feature>
    <cleanName>Creel</cleanName>
    <target>MARS</target>
    <system>MARS</system>
    <diameter>9.19</diameter>
    <centerlatitude>-6.05</centerlatitude>
    <centerlongitude>321.15</centerlongitude>
    <featuretype code="AA">Crater, craters</featuretype>
  </feature>
  <feature>
    <cleanName>Crewe</cleanName>
    <target>MARS</target>
    <system>MARS</system>
    <diameter>3.68</diameter>
    <centerlatitude>-24.84</centerlatitude>
    <centerlongitude>340.47</centerlongitude>
    <featuretype code="AA">Crater, craters</featuretype>
  </feature>
  <feature>
    <cleanName>Crivitz</cleanName>
    <target>MARS</target>
    <system>MARS</system>
    <diameter>6.19</diameter>
    <centerlatitude>-14.55</centerlatitude>
    <centerlongitude>174.79</centerlongitude>
    <featuretype code="AA">Crater, craters</featuretype>
  </feature>
  <feature>
    <cleanName>Crommelin</cleanName>
    <target>MARS</target>
    <system>MARS</system>
    <diameter>110.08</diameter>
    <centerlatitude>5.08</centerlatitude>
    <centerlongitude>349.86</centerlongitude>
    <featuretype code="AA">Crater, craters</featuretype>
  </feature>
  <feature>
    <cleanName>Cross</cleanName>
    <target>MARS</target>
    <system>MARS</system>
    <diameter>66.57</diameter>
    <centerlatitude>-30.2</centerlatitude>
    <centerlongitude>202.31</centerlongitude>
    <featuretype code="AA">Crater, craters</featuretype>
  </feature>
  <feature>
    <cleanName>Crotone</cleanName>
    <target>MARS</target>
    <system>MARS</system>
    <diameter>6.28</diameter>
    <centerlatitude>82.21</centerlatitude>
    <centerlongitude>290.69</centerlongitude>
    <featuretype code="AA">Crater, craters</featuretype>
  </feature>
  <feature>
    <cleanName>Cruls</cleanName>
    <target>MARS</target>
    <system>MARS</system>
    <diameter>87.89</diameter>
    <centerlatitude>-42.91</centerlatitude>
    <centerlongitude>163.03</centerlongitude>
    <featuretype code="AA">Crater, craters</featuretype>
  </feature>
  <feature>
    <cleanName>Cruz</cleanName>
    <target>MARS</target>
    <system>MARS</system>
    <diameter>5.33</diameter>
    <centerlatitude>38.46</centerlatitude>
    <centerlongitude>358.03</centerlongitude>
    <featuretype code="AA">Crater, craters</featuretype>
  </feature>
  <feature>
    <cleanName>Cue</cleanName>
    <target>MARS</target>
    <system>MARS</system>
    <diameter>10.54</diameter>
    <centerlatitude>-35.84</centerlatitude>
    <centerlongitude>93.23</centerlongitude>
    <featuretype code="AA">Crater, craters</featuretype>
  </feature>
  <feature>
    <cleanName>Culter</cleanName>
    <target>MARS</target>
    <system>MARS</system>
    <diameter>4.87</diameter>
    <centerlatitude>-8.84</centerlatitude>
    <centerlongitude>306.07</centerlongitude>
    <featuretype code="AA">Crater, craters</featuretype>
  </feature>
  <feature>
    <cleanName>Curie</cleanName>
    <target>MARS</target>
    <system>MARS</system>
    <diameter>111.11</diameter>
    <centerlatitude>28.78</centerlatitude>
    <centerlongitude>355.25</centerlongitude>
    <featuretype code="AA">Crater, craters</featuretype>
  </feature>
  <feature>
    <cleanName>Cypress</cleanName>
    <target>MARS</target>
    <system>MARS</system>
    <diameter>14.67</diameter>
    <centerlatitude>-47.28</centerlatitude>
    <centerlongitude>312.65</centerlongitude>
    <featuretype code="AA">Crater, craters</featuretype>
  </feature>
  <feature>
    <cleanName>Daan</cleanName>
    <target>MARS</target>
    <system>MARS</system>
    <diameter>12.22</diameter>
    <centerlatitude>-40.48</centerlatitude>
    <centerlongitude>91.58</centerlongitude>
    <featuretype code="AA">Crater, craters</featuretype>
  </feature>
  <feature>
    <cleanName>Daet</cleanName>
    <target>MARS</target>
    <system>MARS</system>
    <diameter>10.58</diameter>
    <centerlatitude>-7.29</centerlatitude>
    <centerlongitude>318.2</centerlongitude>
    <featuretype code="AA">Crater, craters</featuretype>
  </feature>
  <feature>
    <cleanName>Daly</cleanName>
    <target>MARS</target>
    <system>MARS</system>
    <diameter>79.72</diameter>
    <centerlatitude>-66.29</centerlatitude>
    <centerlongitude>336.88</centerlongitude>
    <featuretype code="AA">Crater, craters</featuretype>
  </feature>
  <feature>
    <cleanName>Dana</cleanName>
    <target>MARS</target>
    <system>MARS</system>
    <diameter>88.49</diameter>
    <centerlatitude>-72.49</centerlatitude>
    <centerlongitude>327.21</centerlongitude>
    <featuretype code="AA">Crater, craters</featuretype>
  </feature>
  <feature>
    <cleanName>Danielson</cleanName>
    <target>MARS</target>
    <system>MARS</system>
    <diameter>64.3</diameter>
    <centerlatitude>7.97</centerlatitude>
    <centerlongitude>352.95</centerlongitude>
    <featuretype code="AA">Crater, craters</featuretype>
  </feature>
  <feature>
    <cleanName>Dank</cleanName>
    <target>MARS</target>
    <system>MARS</system>
    <diameter>8.29</diameter>
    <centerlatitude>21.96</centerlatitude>
    <centerlongitude>107</centerlongitude>
    <featuretype code="AA">Crater, craters</featuretype>
  </feature>
  <feature>
    <cleanName>Darvel</cleanName>
    <target>MARS</target>
    <system>MARS</system>
    <diameter>22.36</diameter>
    <centerlatitude>17.78</centerlatitude>
    <centerlongitude>308.99</centerlongitude>
    <featuretype code="AA">Crater, craters</featuretype>
  </feature>
  <feature>
    <cleanName>Darwin</cleanName>
    <target>MARS</target>
    <system>MARS</system>
    <diameter>176.38</diameter>
    <centerlatitude>-56.97</centerlatitude>
    <centerlongitude>340.85</centerlongitude>
    <featuretype code="AA">Crater, craters</featuretype>
  </feature>
  <feature>
    <cleanName>Davies</cleanName>
    <target>MARS</target>
    <system>MARS</system>
    <diameter>48.06</diameter>
    <centerlatitude>45.96</centerlatitude>
    <centerlongitude>0.09</centerlongitude>
    <featuretype code="AA">Crater, craters</featuretype>
  </feature>
  <feature>
    <cleanName>Da Vinci</cleanName>
    <target>MARS</target>
    <system>MARS</system>
    <diameter>96.3</diameter>
    <centerlatitude>1.47</centerlatitude>
    <centerlongitude>320.74</centerlongitude>
    <featuretype code="AA">Crater, craters</featuretype>
  </feature>
  <feature>
    <cleanName>Dawes</cleanName>
    <target>MARS</target>
    <system>MARS</system>
    <diameter>185.32</diameter>
    <centerlatitude>-9.11</centerlatitude>
    <centerlongitude>38.06</centerlongitude>
    <featuretype code="AA">Crater, craters</featuretype>
  </feature>
  <feature>
    <cleanName>Deba</cleanName>
    <target>MARS</target>
    <system>MARS</system>
    <diameter>8.8</diameter>
    <centerlatitude>-23.95</centerlatitude>
    <centerlongitude>342.7</centerlongitude>
    <featuretype code="AA">Crater, craters</featuretype>
  </feature>
  <feature>
    <cleanName>Dechu</cleanName>
    <target>MARS</target>
    <system>MARS</system>
    <diameter>22</diameter>
    <centerlatitude>-42.25</centerlatitude>
    <centerlongitude>202.01</centerlongitude>
    <featuretype code="AA">Crater, craters</featuretype>
  </feature>
  <feature>
    <cleanName>Degana</cleanName>
    <target>MARS</target>
    <system>MARS</system>
    <diameter>57</diameter>
    <centerlatitude>-23.72</centerlatitude>
    <centerlongitude>314.5</centerlongitude>
    <featuretype code="AA">Crater, craters</featuretype>
  </feature>
  <feature>
    <cleanName>Dein</cleanName>
    <target>MARS</target>
    <system>MARS</system>
    <diameter>25.52</diameter>
    <centerlatitude>38.21</centerlatitude>
    <centerlongitude>357.49</centerlongitude>
    <featuretype code="AA">Crater, craters</featuretype>
  </feature>
  <feature>
    <cleanName>Dejnev</cleanName>
    <target>MARS</target>
    <system>MARS</system>
    <diameter>152.09</diameter>
    <centerlatitude>-25.14</centerlatitude>
    <centerlongitude>195.36</centerlongitude>
    <featuretype code="AA">Crater, craters</featuretype>
  </feature>
  <feature>
    <cleanName>Delta</cleanName>
    <target>MARS</target>
    <system>MARS</system>
    <diameter>7.89</diameter>
    <centerlatitude>-45.96</centerlatitude>
    <centerlongitude>320.83</centerlongitude>
    <featuretype code="AA">Crater, craters</featuretype>
  </feature>
  <feature>
    <cleanName>Denning</cleanName>
    <target>MARS</target>
    <system>MARS</system>
    <diameter>159.71</diameter>
    <centerlatitude>-17.43</centerlatitude>
    <centerlongitude>33.52</centerlongitude>
    <featuretype code="AA">Crater, craters</featuretype>
  </feature>
  <feature>
    <cleanName>Dersu</cleanName>
    <target>MARS</target>
    <system>MARS</system>
    <diameter>5.88</diameter>
    <centerlatitude>22.64</centerlatitude>
    <centerlongitude>308.11</centerlongitude>
    <featuretype code="AA">Crater, craters</featuretype>
  </feature>
  <feature>
    <cleanName>Dese</cleanName>
    <target>MARS</target>
    <system>MARS</system>
    <diameter>13.14</diameter>
    <centerlatitude>-45.41</centerlatitude>
    <centerlongitude>329.39</centerlongitude>
    <featuretype code="AA">Crater, craters</featuretype>
  </feature>
  <feature>
    <cleanName>Deseado</cleanName>
    <target>MARS</target>
    <system>MARS</system>
    <diameter>27</diameter>
    <centerlatitude>-80.62</centerlatitude>
    <centerlongitude>70.29</centerlongitude>
    <featuretype code="AA">Crater, craters</featuretype>
  </feature>
  <feature>
    <cleanName>Dessau</cleanName>
    <target>MARS</target>
    <system>MARS</system>
    <diameter>9.95</diameter>
    <centerlatitude>-42.76</centerlatitude>
    <centerlongitude>306.87</centerlongitude>
    <featuretype code="AA">Crater, craters</featuretype>
  </feature>
  <feature>
    <cleanName>de Vaucouleurs</cleanName>
    <target>MARS</target>
    <system>MARS</system>
    <diameter>302.27</diameter>
    <centerlatitude>-13.31</centerlatitude>
    <centerlongitude>171</centerlongitude>
    <featuretype code="AA">Crater, craters</featuretype>
  </feature>
  <feature>
    <cleanName>Dia Cau</cleanName>
    <target>MARS</target>
    <system>MARS</system>
    <diameter>29.47</diameter>
    <centerlatitude>-0.36</centerlatitude>
    <centerlongitude>317.34</centerlongitude>
    <featuretype code="AA">Crater, craters</featuretype>
  </feature>
  <feature>
    <cleanName>Dilly</cleanName>
    <target>MARS</target>
    <system>MARS</system>
    <diameter>2.13</diameter>
    <centerlatitude>13.27</centerlatitude>
    <centerlongitude>157.22</centerlongitude>
    <featuretype code="AA">Crater, craters</featuretype>
  </feature>
  <feature>
    <cleanName>Dingo</cleanName>
    <target>MARS</target>
    <system>MARS</system>
    <diameter>15.56</diameter>
    <centerlatitude>-23.71</centerlatitude>
    <centerlongitude>342.51</centerlongitude>
    <featuretype code="AA">Crater, craters</featuretype>
  </feature>
  <feature>
    <cleanName>Dinorwic</cleanName>
    <target>MARS</target>
    <system>MARS</system>
    <diameter>51.33</diameter>
    <centerlatitude>-30.03</centerlatitude>
    <centerlongitude>258.54</centerlongitude>
    <featuretype code="AA">Crater, craters</featuretype>
  </feature>
  <feature>
    <cleanName>Dison</cleanName>
    <target>MARS</target>
    <system>MARS</system>
    <diameter>20.67</diameter>
    <centerlatitude>-25.03</centerlatitude>
    <centerlongitude>343.5</centerlongitude>
    <featuretype code="AA">Crater, craters</featuretype>
  </feature>
  <feature>
    <cleanName>Dixie</cleanName>
    <target>MARS</target>
    <system>MARS</system>
    <diameter>28.44</diameter>
    <centerlatitude>17.78</centerlatitude>
    <centerlongitude>304.09</centerlongitude>
    <featuretype code="AA">Crater, craters</featuretype>
  </feature>
  <feature>
    <cleanName>Doba</cleanName>
    <target>MARS</target>
    <system>MARS</system>
    <diameter>25.89</diameter>
    <centerlatitude>10.92</centerlatitude>
    <centerlongitude>119.62</centerlongitude>
    <featuretype code="AA">Crater, craters</featuretype>
  </feature>
  <feature>
    <cleanName>Dogana</cleanName>
    <target>MARS</target>
    <system>MARS</system>
    <diameter>41.2</diameter>
    <centerlatitude>-10.01</centerlatitude>
    <centerlongitude>306.33</centerlongitude>
    <featuretype code="AA">Crater, craters</featuretype>
  </feature>
  <feature>
    <cleanName>Dokka</cleanName>
    <target>MARS</target>
    <system>MARS</system>
    <diameter>51.1</diameter>
    <centerlatitude>77.17</centerlatitude>
    <centerlongitude>214.24</centerlongitude>
    <featuretype code="AA">Crater, craters</featuretype>
  </feature>
  <feature>
    <cleanName>Dokuchaev</cleanName>
    <target>MARS</target>
    <system>MARS</system>
    <diameter>74.74</diameter>
    <centerlatitude>-60.62</centerlatitude>
    <centerlongitude>232.92</centerlongitude>
    <featuretype code="AA">Crater, craters</featuretype>
  </feature>
  <feature>
    <cleanName>Dollfus</cleanName>
    <target>MARS</target>
    <system>MARS</system>
    <diameter>363.08</diameter>
    <centerlatitude>-21.59</centerlatitude>
    <centerlongitude>355.74</centerlongitude>
    <featuretype code="AA">Crater, craters</featuretype>
  </feature>
  <feature>
    <cleanName>Domoni</cleanName>
    <target>MARS</target>
    <system>MARS</system>
    <diameter>13.82</diameter>
    <centerlatitude>51.38</centerlatitude>
    <centerlongitude>234.39</centerlongitude>
    <featuretype code="AA">Crater, craters</featuretype>
  </feature>
  <feature>
    <cleanName>Doon</cleanName>
    <target>MARS</target>
    <system>MARS</system>
    <diameter>3.79</diameter>
    <centerlatitude>23.53</centerlatitude>
    <centerlongitude>109.51</centerlongitude>
    <featuretype code="AA">Crater, craters</featuretype>
  </feature>
  <feature>
    <cleanName>Douglass</cleanName>
    <target>MARS</target>
    <system>MARS</system>
    <diameter>92.95</diameter>
    <centerlatitude>-51.34</centerlatitude>
    <centerlongitude>289.46</centerlongitude>
    <featuretype code="AA">Crater, craters</featuretype>
  </feature>
  <feature>
    <cleanName>Dowa</cleanName>
    <target>MARS</target>
    <system>MARS</system>
    <diameter>40.84</diameter>
    <centerlatitude>-31.66</centerlatitude>
    <centerlongitude>110.24</centerlongitude>
    <featuretype code="AA">Crater, craters</featuretype>
  </feature>
  <feature>
    <cleanName>Downe</cleanName>
    <target>MARS</target>
    <system>MARS</system>
    <diameter>28.13</diameter>
    <centerlatitude>-15.98</centerlatitude>
    <centerlongitude>175.78</centerlongitude>
    <featuretype code="AA">Crater, craters</featuretype>
  </feature>
  <feature>
    <cleanName>Dromore</cleanName>
    <target>MARS</target>
    <system>MARS</system>
    <diameter>14.75</diameter>
    <centerlatitude>19.88</centerlatitude>
    <centerlongitude>310.42</centerlongitude>
    <featuretype code="AA">Crater, craters</featuretype>
  </feature>
  <feature>
    <cleanName>Dubki</cleanName>
    <target>MARS</target>
    <system>MARS</system>
    <diameter>9.19</diameter>
    <centerlatitude>-34.97</centerlatitude>
    <centerlongitude>304.8</centerlongitude>
    <featuretype code="AA">Crater, craters</featuretype>
  </feature>
  <feature>
    <cleanName>Dukhan</cleanName>
    <target>MARS</target>
    <system>MARS</system>
    <diameter>34.04</diameter>
    <centerlatitude>7.76</centerlatitude>
    <centerlongitude>320.86</centerlongitude>
    <featuretype code="AA">Crater, craters</featuretype>
  </feature>
  <feature>
    <cleanName>Dulovo</cleanName>
    <target>MARS</target>
    <system>MARS</system>
    <diameter>17.38</diameter>
    <centerlatitude>3.62</centerlatitude>
    <centerlongitude>84.56</centerlongitude>
    <featuretype code="AA">Crater, craters</featuretype>
  </feature>
  <feature>
    <cleanName>Du Martheray</cleanName>
    <target>MARS</target>
    <system>MARS</system>
    <diameter>96.12</diameter>
    <centerlatitude>5.45</centerlatitude>
    <centerlongitude>93.58</centerlongitude>
    <featuretype code="AA">Crater, craters</featuretype>
  </feature>
  <feature>
    <cleanName>Dunhuang</cleanName>
    <target>MARS</target>
    <system>MARS</system>
    <diameter>11.73</diameter>
    <centerlatitude>-80.84</centerlatitude>
    <centerlongitude>311.47</centerlongitude>
    <featuretype code="AA">Crater, craters</featuretype>
  </feature>
  <feature>
    <cleanName>Dunkassa</cleanName>
    <target>MARS</target>
    <system>MARS</system>
    <diameter>8</diameter>
    <centerlatitude>-37.49</centerlatitude>
    <centerlongitude>222.94</centerlongitude>
    <featuretype code="AA">Crater, craters</featuretype>
  </feature>
  <feature>
    <cleanName>Dush</cleanName>
    <target>MARS</target>
    <system>MARS</system>
    <diameter>2.39</diameter>
    <centerlatitude>22.49</centerlatitude>
    <centerlongitude>305.98</centerlongitude>
    <featuretype code="AA">Crater, craters</featuretype>
  </feature>
  <feature>
    <cleanName>Du Toit</cleanName>
    <target>MARS</target>
    <system>MARS</system>
    <diameter>81.82</diameter>
    <centerlatitude>-71.62</centerlatitude>
    <centerlongitude>310.4</centerlongitude>
    <featuretype code="AA">Crater, craters</featuretype>
  </feature>
  <feature>
    <cleanName>Dzeng</cleanName>
    <target>MARS</target>
    <system>MARS</system>
    <diameter>10.88</diameter>
    <centerlatitude>-80.51</centerlatitude>
    <centerlongitude>289.53</centerlongitude>
    <featuretype code="AA">Crater, craters</featuretype>
  </feature>
  <feature>
    <cleanName>Eads</cleanName>
    <target>MARS</target>
    <system>MARS</system>
    <diameter>2.74</diameter>
    <centerlatitude>-28.48</centerlatitude>
    <centerlongitude>330.09</centerlongitude>
    <featuretype code="AA">Crater, craters</featuretype>
  </feature>
  <feature>
    <cleanName>Eagle</cleanName>
    <target>MARS</target>
    <system>MARS</system>
    <diameter>12.5</diameter>
    <centerlatitude>43.81</centerlatitude>
    <centerlongitude>351.83</centerlongitude>
    <featuretype code="AA">Crater, craters</featuretype>
  </feature>
  <feature>
    <cleanName>Eberswalde</cleanName>
    <target>MARS</target>
    <system>MARS</system>
    <diameter>62.19</diameter>
    <centerlatitude>-23.98</centerlatitude>
    <centerlongitude>326.7</centerlongitude>
    <featuretype code="AA">Crater, craters</featuretype>
  </feature>
  <feature>
    <cleanName>Echt</cleanName>
    <target>MARS</target>
    <system>MARS</system>
    <diameter>2.15</diameter>
    <centerlatitude>-21.97</centerlatitude>
    <centerlongitude>331.81</centerlongitude>
    <featuretype code="AA">Crater, craters</featuretype>
  </feature>
  <feature>
    <cleanName>Edam</cleanName>
    <target>MARS</target>
    <system>MARS</system>
    <diameter>19.49</diameter>
    <centerlatitude>-26.28</centerlatitude>
    <centerlongitude>339.96</centerlongitude>
    <featuretype code="AA">Crater, craters</featuretype>
  </feature>
  <feature>
    <cleanName>Eddie</cleanName>
    <target>MARS</target>
    <system>MARS</system>
    <diameter>86.38</diameter>
    <centerlatitude>12.32</centerlatitude>
    <centerlongitude>142.2</centerlongitude>
    <featuretype code="AA">Crater, craters</featuretype>
  </feature>
  <feature>
    <cleanName>Eger</cleanName>
    <target>MARS</target>
    <system>MARS</system>
    <diameter>12.25</diameter>
    <centerlatitude>-48.29</centerlatitude>
    <centerlongitude>308.13</centerlongitude>
    <featuretype code="AA">Crater, craters</featuretype>
  </feature>
  <feature>
    <cleanName>Ehden</cleanName>
    <target>MARS</target>
    <system>MARS</system>
    <diameter>57.4</diameter>
    <centerlatitude>8.23</centerlatitude>
    <centerlongitude>119.01</centerlongitude>
    <featuretype code="AA">Crater, craters</featuretype>
  </feature>
  <feature>
    <cleanName>Eil</cleanName>
    <target>MARS</target>
    <system>MARS</system>
    <diameter>5.56</diameter>
    <centerlatitude>41.73</centerlatitude>
    <centerlongitude>350.26</centerlongitude>
    <featuretype code="AA">Crater, craters</featuretype>
  </feature>
  <feature>
    <cleanName>Eilat</cleanName>
    <target>MARS</target>
    <system>MARS</system>
    <diameter>29.7</diameter>
    <centerlatitude>-56.53</centerlatitude>
    <centerlongitude>50.2</centerlongitude>
    <featuretype code="AA">Crater, craters</featuretype>
  </feature>
  <feature>
    <cleanName>Ejriksson</cleanName>
    <target>MARS</target>
    <system>MARS</system>
    <diameter>46.63</diameter>
    <centerlatitude>-19.2</centerlatitude>
    <centerlongitude>186.17</centerlongitude>
    <featuretype code="AA">Crater, craters</featuretype>
  </feature>
  <feature>
    <cleanName>Elath</cleanName>
    <target>MARS</target>
    <system>MARS</system>
    <diameter>13.23</diameter>
    <centerlatitude>45.87</centerlatitude>
    <centerlongitude>346.4</centerlongitude>
    <featuretype code="AA">Crater, craters</featuretype>
  </feature>
  <feature>
    <cleanName>Elim</cleanName>
    <target>MARS</target>
    <system>MARS</system>
    <diameter>43.63</diameter>
    <centerlatitude>-80.17</centerlatitude>
    <centerlongitude>96.8</centerlongitude>
    <featuretype code="AA">Crater, craters</featuretype>
  </feature>
  <feature>
    <cleanName>Ellsley</cleanName>
    <target>MARS</target>
    <system>MARS</system>
    <diameter>10.94</diameter>
    <centerlatitude>36.29</centerlatitude>
    <centerlongitude>276.7</centerlongitude>
    <featuretype code="AA">Crater, craters</featuretype>
  </feature>
  <feature>
    <cleanName>Elorza</cleanName>
    <target>MARS</target>
    <system>MARS</system>
    <diameter>45.16</diameter>
    <centerlatitude>-8.76</centerlatitude>
    <centerlongitude>304.79</centerlongitude>
    <featuretype code="AA">Crater, craters</featuretype>
  </feature>
  <feature>
    <cleanName>Ely</cleanName>
    <target>MARS</target>
    <system>MARS</system>
    <diameter>10.43</diameter>
    <centerlatitude>-23.62</centerlatitude>
    <centerlongitude>332.7</centerlongitude>
    <featuretype code="AA">Crater, craters</featuretype>
  </feature>
  <feature>
    <cleanName>Endeavour</cleanName>
    <target>MARS</target>
    <system>MARS</system>
    <diameter>21.78</diameter>
    <centerlatitude>-2.28</centerlatitude>
    <centerlongitude>354.8</centerlongitude>
    <featuretype code="AA">Crater, craters</featuretype>
  </feature>
  <feature>
    <cleanName>Escalante</cleanName>
    <target>MARS</target>
    <system>MARS</system>
    <diameter>75.26</diameter>
    <centerlatitude>0.19</centerlatitude>
    <centerlongitude>115.39</centerlongitude>
    <featuretype code="AA">Crater, craters</featuretype>
  </feature>
  <feature>
    <cleanName>Escorial</cleanName>
    <target>MARS</target>
    <system>MARS</system>
    <diameter>22.24</diameter>
    <centerlatitude>76.89</centerlatitude>
    <centerlongitude>304.96</centerlongitude>
    <featuretype code="AA">Crater, craters</featuretype>
  </feature>
  <feature>
    <cleanName>Esira</cleanName>
    <target>MARS</target>
    <system>MARS</system>
    <diameter>16.26</diameter>
    <centerlatitude>8.96</centerlatitude>
    <centerlongitude>313.39</centerlongitude>
    <featuretype code="AA">Crater, craters</featuretype>
  </feature>
  <feature>
    <cleanName>Esk</cleanName>
    <target>MARS</target>
    <system>MARS</system>
    <diameter>3.67</diameter>
    <centerlatitude>45.21</centerlatitude>
    <centerlongitude>352.98</centerlongitude>
    <featuretype code="AA">Crater, craters</featuretype>
  </feature>
  <feature>
    <cleanName>Espino</cleanName>
    <target>MARS</target>
    <system>MARS</system>
    <diameter>12.05</diameter>
    <centerlatitude>-19.69</centerlatitude>
    <centerlongitude>110.34</centerlongitude>
    <featuretype code="AA">Crater, craters</featuretype>
  </feature>
  <feature>
    <cleanName>Eudoxus</cleanName>
    <target>MARS</target>
    <system>MARS</system>
    <diameter>98.51</diameter>
    <centerlatitude>-44.52</centerlatitude>
    <centerlongitude>212.78</centerlongitude>
    <featuretype code="AA">Crater, craters</featuretype>
  </feature>
  <feature>
    <cleanName>Evpatoriya</cleanName>
    <target>MARS</target>
    <system>MARS</system>
    <diameter>1.04</diameter>
    <centerlatitude>46.95</centerlatitude>
    <centerlongitude>134.36</centerlongitude>
    <featuretype code="AA">Crater, craters</featuretype>
  </feature>
  <feature>
    <cleanName>Faith</cleanName>
    <target>MARS</target>
    <system>MARS</system>
    <diameter>5.3</diameter>
    <centerlatitude>42.92</centerlatitude>
    <centerlongitude>348.17</centerlongitude>
    <featuretype code="AA">Crater, craters</featuretype>
  </feature>
  <feature>
    <cleanName>Falun</cleanName>
    <target>MARS</target>
    <system>MARS</system>
    <diameter>10.01</diameter>
    <centerlatitude>-23.96</centerlatitude>
    <centerlongitude>335.33</centerlongitude>
    <featuretype code="AA">Crater, craters</featuretype>
  </feature>
  <feature>
    <cleanName>Fancy</cleanName>
    <target>MARS</target>
    <system>MARS</system>
    <diameter>49.44</diameter>
    <centerlatitude>-35.45</centerlatitude>
    <centerlongitude>113.6</centerlongitude>
    <featuretype code="AA">Crater, craters</featuretype>
  </feature>
  <feature>
    <cleanName>Faqu</cleanName>
    <target>MARS</target>
    <system>MARS</system>
    <diameter>12.25</diameter>
    <centerlatitude>-24.54</centerlatitude>
    <centerlongitude>106.34</centerlongitude>
    <featuretype code="AA">Crater, craters</featuretype>
  </feature>
  <feature>
    <cleanName>Farim</cleanName>
    <target>MARS</target>
    <system>MARS</system>
    <diameter>3.92</diameter>
    <centerlatitude>-44.31</centerlatitude>
    <centerlongitude>139.28</centerlongitude>
    <featuretype code="AA">Crater, craters</featuretype>
  </feature>
  <feature>
    <cleanName>Fastov</cleanName>
    <target>MARS</target>
    <system>MARS</system>
    <diameter>11.12</diameter>
    <centerlatitude>-25.04</centerlatitude>
    <centerlongitude>339.63</centerlongitude>
    <featuretype code="AA">Crater, craters</featuretype>
  </feature>
  <feature>
    <cleanName>Fenagh</cleanName>
    <target>MARS</target>
    <system>MARS</system>
    <diameter>6.22</diameter>
    <centerlatitude>34.29</centerlatitude>
    <centerlongitude>144.37</centerlongitude>
    <featuretype code="AA">Crater, craters</featuretype>
  </feature>
  <feature>
    <cleanName>Fesenkov</cleanName>
    <target>MARS</target>
    <system>MARS</system>
    <diameter>87.38</diameter>
    <centerlatitude>21.66</centerlatitude>
    <centerlongitude>273.47</centerlongitude>
    <featuretype code="AA">Crater, craters</featuretype>
  </feature>
  <feature>
    <cleanName>Firsoff</cleanName>
    <target>MARS</target>
    <system>MARS</system>
    <diameter>90</diameter>
    <centerlatitude>2.73</centerlatitude>
    <centerlongitude>350.63</centerlongitude>
    <featuretype code="AA">Crater, craters</featuretype>
  </feature>
  <feature>
    <cleanName>Fitzroy</cleanName>
    <target>MARS</target>
    <system>MARS</system>
    <diameter>38.17</diameter>
    <centerlatitude>-35.69</centerlatitude>
    <centerlongitude>112.06</centerlongitude>
    <featuretype code="AA">Crater, craters</featuretype>
  </feature>
  <feature>
    <cleanName>Flammarion</cleanName>
    <target>MARS</target>
    <system>MARS</system>
    <diameter>173.7</diameter>
    <centerlatitude>25.22</centerlatitude>
    <centerlongitude>48.28</centerlongitude>
    <featuretype code="AA">Crater, craters</featuretype>
  </feature>
  <feature>
    <cleanName>Flat</cleanName>
    <target>MARS</target>
    <system>MARS</system>
    <diameter>3.04</diameter>
    <centerlatitude>-25.42</centerlatitude>
    <centerlongitude>340.45</centerlongitude>
    <featuretype code="AA">Crater, craters</featuretype>
  </feature>
  <feature>
    <cleanName>Flateyri</cleanName>
    <target>MARS</target>
    <system>MARS</system>
    <diameter>9.5</diameter>
    <centerlatitude>-35.86</centerlatitude>
    <centerlongitude>330.92</centerlongitude>
    <featuretype code="AA">Crater, craters</featuretype>
  </feature>
  <feature>
    <cleanName>Flaugergues</cleanName>
    <target>MARS</target>
    <system>MARS</system>
    <diameter>236.06</diameter>
    <centerlatitude>-16.8</centerlatitude>
    <centerlongitude>19.22</centerlongitude>
    <featuretype code="AA">Crater, craters</featuretype>
  </feature>
  <feature>
    <cleanName>Floq</cleanName>
    <target>MARS</target>
    <system>MARS</system>
    <diameter>2.55</diameter>
    <centerlatitude>14.94</centerlatitude>
    <centerlongitude>107.16</centerlongitude>
    <featuretype code="AA">Crater, craters</featuretype>
  </feature>
  <feature>
    <cleanName>Flora</cleanName>
    <target>MARS</target>
    <system>MARS</system>
    <diameter>18.31</diameter>
    <centerlatitude>-44.67</centerlatitude>
    <centerlongitude>308.55</centerlongitude>
    <featuretype code="AA">Crater, craters</featuretype>
  </feature>
  <feature>
    <cleanName>Focas</cleanName>
    <target>MARS</target>
    <system>MARS</system>
    <diameter>72.02</diameter>
    <centerlatitude>33.56</centerlatitude>
    <centerlongitude>12.75</centerlongitude>
    <featuretype code="AA">Crater, craters</featuretype>
  </feature>
  <feature>
    <cleanName>Fontana</cleanName>
    <target>MARS</target>
    <system>MARS</system>
    <diameter>80.06</diameter>
    <centerlatitude>-62.91</centerlatitude>
    <centerlongitude>287.88</centerlongitude>
    <featuretype code="AA">Crater, craters</featuretype>
  </feature>
  <feature>
    <cleanName>Foros</cleanName>
    <target>MARS</target>
    <system>MARS</system>
    <diameter>24.54</diameter>
    <centerlatitude>-33.4</centerlatitude>
    <centerlongitude>332.13</centerlongitude>
    <featuretype code="AA">Crater, craters</featuretype>
  </feature>
  <feature>
    <cleanName>Fournier</cleanName>
    <target>MARS</target>
    <system>MARS</system>
    <diameter>114.28</diameter>
    <centerlatitude>-4.3</centerlatitude>
    <centerlongitude>72.64</centerlongitude>
    <featuretype code="AA">Crater, craters</featuretype>
  </feature>
  <feature>
    <cleanName>Freedom</cleanName>
    <target>MARS</target>
    <system>MARS</system>
    <diameter>12.74</diameter>
    <centerlatitude>43.36</centerlatitude>
    <centerlongitude>351.02</centerlongitude>
    <featuretype code="AA">Crater, craters</featuretype>
  </feature>
  <feature>
    <cleanName>Funchal</cleanName>
    <target>MARS</target>
    <system>MARS</system>
    <diameter>1.62</diameter>
    <centerlatitude>22.98</centerlatitude>
    <centerlongitude>310.56</centerlongitude>
    <featuretype code="AA">Crater, craters</featuretype>
  </feature>
  <feature>
    <cleanName>Gaan</cleanName>
    <target>MARS</target>
    <system>MARS</system>
    <diameter>3.01</diameter>
    <centerlatitude>38.66</centerlatitude>
    <centerlongitude>356.6</centerlongitude>
    <featuretype code="AA">Crater, craters</featuretype>
  </feature>
  <feature>
    <cleanName>Gagra</cleanName>
    <target>MARS</target>
    <system>MARS</system>
    <diameter>13.41</diameter>
    <centerlatitude>-20.64</centerlatitude>
    <centerlongitude>337.9</centerlongitude>
    <featuretype code="AA">Crater, craters</featuretype>
  </feature>
  <feature>
    <cleanName>Gah</cleanName>
    <target>MARS</target>
    <system>MARS</system>
    <diameter>2.78</diameter>
    <centerlatitude>-44.69</centerlatitude>
    <centerlongitude>327.36</centerlongitude>
    <featuretype code="AA">Crater, craters</featuretype>
  </feature>
  <feature>
    <cleanName>Galap</cleanName>
    <target>MARS</target>
    <system>MARS</system>
    <diameter>5.99</diameter>
    <centerlatitude>-37.66</centerlatitude>
    <centerlongitude>192.93</centerlongitude>
    <featuretype code="AA">Crater, craters</featuretype>
  </feature>
  <feature>
    <cleanName>Galdakao</cleanName>
    <target>MARS</target>
    <system>MARS</system>
    <diameter>33.44</diameter>
    <centerlatitude>-13.34</centerlatitude>
    <centerlongitude>176.63</centerlongitude>
    <featuretype code="AA">Crater, craters</featuretype>
  </feature>
  <feature>
    <cleanName>Gale</cleanName>
    <target>MARS</target>
    <system>MARS</system>
    <diameter>154.08</diameter>
    <centerlatitude>-5.37</centerlatitude>
    <centerlongitude>137.81</centerlongitude>
    <featuretype code="AA">Crater, craters</featuretype>
  </feature>
  <feature>
    <cleanName>Gali</cleanName>
    <target>MARS</target>
    <system>MARS</system>
    <diameter>25.86</diameter>
    <centerlatitude>-43.75</centerlatitude>
    <centerlongitude>322.81</centerlongitude>
    <featuretype code="AA">Crater, craters</featuretype>
  </feature>
  <feature>
    <cleanName>Galilaei</cleanName>
    <target>MARS</target>
    <system>MARS</system>
    <diameter>137.17</diameter>
    <centerlatitude>5.72</centerlatitude>
    <centerlongitude>333.09</centerlongitude>
    <featuretype code="AA">Crater, craters</featuretype>
  </feature>
  <feature>
    <cleanName>Galle</cleanName>
    <target>MARS</target>
    <system>MARS</system>
    <diameter>223.53</diameter>
    <centerlatitude>-50.63</centerlatitude>
    <centerlongitude>329</centerlongitude>
    <featuretype code="AA">Crater, craters</featuretype>
  </feature>
  <feature>
    <cleanName>Galu</cleanName>
    <target>MARS</target>
    <system>MARS</system>
    <diameter>13.57</diameter>
    <centerlatitude>-22.08</centerlatitude>
    <centerlongitude>338.33</centerlongitude>
    <featuretype code="AA">Crater, craters</featuretype>
  </feature>
  <feature>
    <cleanName>Gamboa</cleanName>
    <target>MARS</target>
    <system>MARS</system>
    <diameter>30.82</diameter>
    <centerlatitude>40.77</centerlatitude>
    <centerlongitude>315.64</centerlongitude>
    <featuretype code="AA">Crater, craters</featuretype>
  </feature>
  <feature>
    <cleanName>Gan</cleanName>
    <target>MARS</target>
    <system>MARS</system>
    <diameter>20.63</diameter>
    <centerlatitude>61.72</centerlatitude>
    <centerlongitude>229</centerlongitude>
    <featuretype code="AA">Crater, craters</featuretype>
  </feature>
  <feature>
    <cleanName>Gander</cleanName>
    <target>MARS</target>
    <system>MARS</system>
    <diameter>36.08</diameter>
    <centerlatitude>-31.26</centerlatitude>
    <centerlongitude>94.22</centerlongitude>
    <featuretype code="AA">Crater, craters</featuretype>
  </feature>
  <feature>
    <cleanName>Gandu</cleanName>
    <target>MARS</target>
    <system>MARS</system>
    <diameter>9.49</diameter>
    <centerlatitude>-45.38</centerlatitude>
    <centerlongitude>312.72</centerlongitude>
    <featuretype code="AA">Crater, craters</featuretype>
  </feature>
  <feature>
    <cleanName>Gandzani</cleanName>
    <target>MARS</target>
    <system>MARS</system>
    <diameter>51.91</diameter>
    <centerlatitude>34.24</centerlatitude>
    <centerlongitude>269.17</centerlongitude>
    <featuretype code="AA">Crater, craters</featuretype>
  </feature>
  <feature>
    <cleanName>Gardo</cleanName>
    <target>MARS</target>
    <system>MARS</system>
    <diameter>15.53</diameter>
    <centerlatitude>-26.67</centerlatitude>
    <centerlongitude>335.23</centerlongitude>
    <featuretype code="AA">Crater, craters</featuretype>
  </feature>
  <feature>
    <cleanName>Gari</cleanName>
    <target>MARS</target>
    <system>MARS</system>
    <diameter>9.43</diameter>
    <centerlatitude>-35.88</centerlatitude>
    <centerlongitude>288.77</centerlongitude>
    <featuretype code="AA">Crater, craters</featuretype>
  </feature>
  <feature>
    <cleanName>Garm</cleanName>
    <target>MARS</target>
    <system>MARS</system>
    <diameter>4.8</diameter>
    <centerlatitude>48.25</centerlatitude>
