<?xml version="1.0" encoding="utf-8" ?>
<Defs>
  <feature>
    <cleanName>8 Homeward</cleanName>
    <target>MOON</target>
    <system>EARTH</system>
    <diameter>12.52</diameter>
    <centerlatitude>-12.02</centerlatitude>
    <centerlongitude>97.09</centerlongitude>
    <featuretype code="AA">Crater, craters</featuretype>
  </feature>
  <feature>
    <cleanName>Abbe</cleanName>
    <target>MOON</target>
    <system>EARTH</system>
    <diameter>63.98</diameter>
    <centerlatitude>-57.58</centerlatitude>
    <centerlongitude>174.77</centerlongitude>
    <featuretype code="AA">Crater, craters</featuretype>
  </feature>
  <feature>
    <cleanName>Abbot</cleanName>
    <target>MOON</target>
    <system>EARTH</system>
    <diameter>10.4</diameter>
    <centerlatitude>5.56</centerlatitude>
    <centerlongitude>54.74</centerlongitude>
    <featuretype code="AA">Crater, craters</featuretype>
  </feature>
  <feature>
    <cleanName>Abel</cleanName>
    <target>MOON</target>
    <system>EARTH</system>
    <diameter>137.35</diameter>
    <centerlatitude>-34.63</centerlatitude>
    <centerlongitude>85.78</centerlongitude>
    <featuretype code="AA">Crater, craters</featuretype>
  </feature>
  <feature>
    <cleanName>Abenezra</cleanName>
    <target>MOON</target>
    <system>EARTH</system>
    <diameter>43.19</diameter>
    <centerlatitude>-20.99</centerlatitude>
    <centerlongitude>11.89</centerlongitude>
    <featuretype code="AA">Crater, craters</featuretype>
  </feature>
  <feature>
    <cleanName>Abetti</cleanName>
    <target>MOON</target>
    <system>EARTH</system>
    <diameter>1.6</diameter>
    <centerlatitude>20.11</centerlatitude>
    <centerlongitude>27.82</centerlongitude>
    <featuretype code="AA">Crater, craters</featuretype>
  </feature>
  <feature>
    <cleanName>Abulfeda</cleanName>
    <target>MOON</target>
    <system>EARTH</system>
    <diameter>62.23</diameter>
    <centerlatitude>-13.87</centerlatitude>
    <centerlongitude>13.91</centerlongitude>
    <featuretype code="AA">Crater, craters</featuretype>
  </feature>
  <feature>
    <cleanName>Abul Wafa</cleanName>
    <target>MOON</target>
    <system>EARTH</system>
    <diameter>54.18</diameter>
    <centerlatitude>0.96</centerlatitude>
    <centerlongitude>116.63</centerlongitude>
    <featuretype code="AA">Crater, craters</featuretype>
  </feature>
  <feature>
    <cleanName>Acosta</cleanName>
    <target>MOON</target>
    <system>EARTH</system>
    <diameter>13.06</diameter>
    <centerlatitude>-5.65</centerlatitude>
    <centerlongitude>60.14</centerlongitude>
    <featuretype code="AA">Crater, craters</featuretype>
  </feature>
  <feature>
    <cleanName>Adams</cleanName>
    <target>MOON</target>
    <system>EARTH</system>
    <diameter>63.27</diameter>
    <centerlatitude>-31.89</centerlatitude>
    <centerlongitude>68.39</centerlongitude>
    <featuretype code="AA">Crater, craters</featuretype>
  </feature>
  <feature>
    <cleanName>Aepinus</cleanName>
    <target>MOON</target>
    <system>EARTH</system>
    <diameter>16.74</diameter>
    <centerlatitude>87.96</centerlatitude>
    <centerlongitude>250.31</centerlongitude>
    <featuretype code="AA">Crater, craters</featuretype>
  </feature>
  <feature>
    <cleanName>Agatharchides</cleanName>
    <target>MOON</target>
    <system>EARTH</system>
    <diameter>51.98</diameter>
    <centerlatitude>-19.85</centerlatitude>
    <centerlongitude>328.89</centerlongitude>
    <featuretype code="AA">Crater, craters</featuretype>
  </feature>
  <feature>
    <cleanName>Agrippa</cleanName>
    <target>MOON</target>
    <system>EARTH</system>
    <diameter>43.75</diameter>
    <centerlatitude>4.1</centerlatitude>
    <centerlongitude>10.47</centerlongitude>
    <featuretype code="AA">Crater, craters</featuretype>
  </feature>
  <feature>
    <cleanName>Airy</cleanName>
    <target>MOON</target>
    <system>EARTH</system>
    <diameter>38.9</diameter>
    <centerlatitude>-18.14</centerlatitude>
    <centerlongitude>5.61</centerlongitude>
    <featuretype code="AA">Crater, craters</featuretype>
  </feature>
  <feature>
    <cleanName>Aitken</cleanName>
    <target>MOON</target>
    <system>EARTH</system>
    <diameter>129.69</diameter>
    <centerlatitude>-16.44</centerlatitude>
    <centerlongitude>172.96</centerlongitude>
    <featuretype code="AA">Crater, craters</featuretype>
  </feature>
  <feature>
    <cleanName>Akis</cleanName>
    <target>MOON</target>
    <system>EARTH</system>
    <diameter>2.28</diameter>
    <centerlatitude>20.01</centerlatitude>
    <centerlongitude>328.24</centerlongitude>
    <featuretype code="AA">Crater, craters</featuretype>
  </feature>
  <feature>
    <cleanName>Alan</cleanName>
    <target>MOON</target>
    <system>EARTH</system>
    <diameter>1.44</diameter>
    <centerlatitude>-10.93</centerlatitude>
    <centerlongitude>353.83</centerlongitude>
    <featuretype code="AA">Crater, craters</featuretype>
  </feature>
  <feature>
    <cleanName>Al Bakri</cleanName>
    <target>MOON</target>
    <system>EARTH</system>
    <diameter>12.21</diameter>
    <centerlatitude>14.34</centerlatitude>
    <centerlongitude>20.25</centerlongitude>
    <featuretype code="AA">Crater, craters</featuretype>
  </feature>
  <feature>
    <cleanName>Albategnius</cleanName>
    <target>MOON</target>
    <system>EARTH</system>
    <diameter>130.84</diameter>
    <centerlatitude>-11.24</centerlatitude>
    <centerlongitude>4.01</centerlongitude>
    <featuretype code="AA">Crater, craters</featuretype>
  </feature>
  <feature>
    <cleanName>Albert</cleanName>
    <target>MOON</target>
    <system>EARTH</system>
    <diameter>0.1</diameter>
    <centerlatitude>38.32</centerlatitude>
    <centerlongitude>324.99</centerlongitude>
    <featuretype code="AA">Crater, craters</featuretype>
  </feature>
  <feature>
    <cleanName>Al Biruni</cleanName>
    <target>MOON</target>
    <system>EARTH</system>
    <diameter>80.41</diameter>
    <centerlatitude>18.07</centerlatitude>
    <centerlongitude>92.62</centerlongitude>
    <featuretype code="AA">Crater, craters</featuretype>
  </feature>
  <feature>
    <cleanName>Alden</cleanName>
    <target>MOON</target>
    <system>EARTH</system>
    <diameter>111.44</diameter>
    <centerlatitude>-23.51</centerlatitude>
    <centerlongitude>111.11</centerlongitude>
    <featuretype code="AA">Crater, craters</featuretype>
  </feature>
  <feature>
    <cleanName>Alder</cleanName>
    <target>MOON</target>
    <system>EARTH</system>
    <diameter>82.12</diameter>
    <centerlatitude>-48.63</centerlatitude>
    <centerlongitude>182.12</centerlongitude>
    <featuretype code="AA">Crater, craters</featuretype>
  </feature>
  <feature>
    <cleanName>Aldrin</cleanName>
    <target>MOON</target>
    <system>EARTH</system>
    <diameter>2.8</diameter>
    <centerlatitude>1.41</centerlatitude>
    <centerlongitude>22.09</centerlongitude>
    <featuretype code="AA">Crater, craters</featuretype>
  </feature>
  <feature>
    <cleanName>Alekhin</cleanName>
    <target>MOON</target>
    <system>EARTH</system>
    <diameter>74.82</diameter>
    <centerlatitude>-67.94</centerlatitude>
    <centerlongitude>228.15</centerlongitude>
    <featuretype code="AA">Crater, craters</featuretype>
  </feature>
  <feature>
    <cleanName>Alexander</cleanName>
    <target>MOON</target>
    <system>EARTH</system>
    <diameter>94.8</diameter>
    <centerlatitude>40.25</centerlatitude>
    <centerlongitude>13.69</centerlongitude>
    <featuretype code="AA">Crater, craters</featuretype>
  </feature>
  <feature>
    <cleanName>Alfraganus</cleanName>
    <target>MOON</target>
    <system>EARTH</system>
    <diameter>20.52</diameter>
    <centerlatitude>-5.42</centerlatitude>
    <centerlongitude>18.97</centerlongitude>
    <featuretype code="AA">Crater, craters</featuretype>
  </feature>
  <feature>
    <cleanName>Alhazen</cleanName>
    <target>MOON</target>
    <system>EARTH</system>
    <diameter>34.65</diameter>
    <centerlatitude>15.91</centerlatitude>
    <centerlongitude>71.83</centerlongitude>
    <featuretype code="AA">Crater, craters</featuretype>
  </feature>
  <feature>
    <cleanName>Aliacensis</cleanName>
    <target>MOON</target>
    <system>EARTH</system>
    <diameter>79.65</diameter>
    <centerlatitude>-30.6</centerlatitude>
    <centerlongitude>5.13</centerlongitude>
    <featuretype code="AA">Crater, craters</featuretype>
  </feature>
  <feature>
    <cleanName>Al Khwarizmi</cleanName>
    <target>MOON</target>
    <system>EARTH</system>
    <diameter>56.25</diameter>
    <centerlatitude>7.02</centerlatitude>
    <centerlongitude>107.01</centerlongitude>
    <featuretype code="AA">Crater, craters</featuretype>
  </feature>
  <feature>
    <cleanName>Almanon</cleanName>
    <target>MOON</target>
    <system>EARTH</system>
    <diameter>47.76</diameter>
    <centerlatitude>-16.85</centerlatitude>
    <centerlongitude>15.14</centerlongitude>
    <featuretype code="AA">Crater, craters</featuretype>
  </feature>
  <feature>
    <cleanName>Al Marrakushi</cleanName>
    <target>MOON</target>
    <system>EARTH</system>
    <diameter>8.57</diameter>
    <centerlatitude>-10.45</centerlatitude>
    <centerlongitude>55.77</centerlongitude>
    <featuretype code="AA">Crater, craters</featuretype>
  </feature>
  <feature>
    <cleanName>Aloha</cleanName>
    <target>MOON</target>
    <system>EARTH</system>
    <diameter>2.55</diameter>
    <centerlatitude>29.79</centerlatitude>
    <centerlongitude>306.12</centerlongitude>
    <featuretype code="AA">Crater, craters</featuretype>
  </feature>
  <feature>
    <cleanName>Alpetragius</cleanName>
    <target>MOON</target>
    <system>EARTH</system>
    <diameter>40.02</diameter>
    <centerlatitude>-16.05</centerlatitude>
    <centerlongitude>355.49</centerlongitude>
    <featuretype code="AA">Crater, craters</featuretype>
  </feature>
  <feature>
    <cleanName>Alphonsus</cleanName>
    <target>MOON</target>
    <system>EARTH</system>
    <diameter>110.54</diameter>
    <centerlatitude>-13.39</centerlatitude>
    <centerlongitude>357.15</centerlongitude>
    <featuretype code="AA">Crater, craters</featuretype>
  </feature>
  <feature>
    <cleanName>Alter</cleanName>
    <target>MOON</target>
    <system>EARTH</system>
    <diameter>64.73</diameter>
    <centerlatitude>18.74</centerlatitude>
    <centerlongitude>252.2</centerlongitude>
    <featuretype code="AA">Crater, craters</featuretype>
  </feature>
  <feature>
    <cleanName>Ameghino</cleanName>
    <target>MOON</target>
    <system>EARTH</system>
    <diameter>9.2</diameter>
    <centerlatitude>3.3</centerlatitude>
    <centerlongitude>57.04</centerlongitude>
    <featuretype code="AA">Crater, craters</featuretype>
  </feature>
  <feature>
    <cleanName>Amici</cleanName>
    <target>MOON</target>
    <system>EARTH</system>
    <diameter>52.03</diameter>
    <centerlatitude>-10.06</centerlatitude>
    <centerlongitude>187.77</centerlongitude>
    <featuretype code="AA">Crater, craters</featuretype>
  </feature>
  <feature>
    <cleanName>Ammonius</cleanName>
    <target>MOON</target>
    <system>EARTH</system>
    <diameter>8.55</diameter>
    <centerlatitude>-8.52</centerlatitude>
    <centerlongitude>359.17</centerlongitude>
    <featuretype code="AA">Crater, craters</featuretype>
  </feature>
  <feature>
    <cleanName>Amontons</cleanName>
    <target>MOON</target>
    <system>EARTH</system>
    <diameter>2.47</diameter>
    <centerlatitude>-5.34</centerlatitude>
    <centerlongitude>46.78</centerlongitude>
    <featuretype code="AA">Crater, craters</featuretype>
  </feature>
  <feature>
    <cleanName>Amundsen</cleanName>
    <target>MOON</target>
    <system>EARTH</system>
    <diameter>103.39</diameter>
    <centerlatitude>-84.44</centerlatitude>
    <centerlongitude>83.07</centerlongitude>
    <featuretype code="AA">Crater, craters</featuretype>
  </feature>
  <feature>
    <cleanName>Anaxagoras</cleanName>
    <target>MOON</target>
    <system>EARTH</system>
    <diameter>51.9</diameter>
    <centerlatitude>73.48</centerlatitude>
    <centerlongitude>349.83</centerlongitude>
    <featuretype code="AA">Crater, craters</featuretype>
  </feature>
  <feature>
    <cleanName>Anaximander</cleanName>
    <target>MOON</target>
    <system>EARTH</system>
    <diameter>68.71</diameter>
    <centerlatitude>66.97</centerlatitude>
    <centerlongitude>308.56</centerlongitude>
    <featuretype code="AA">Crater, craters</featuretype>
  </feature>
  <feature>
    <cleanName>Anaximenes</cleanName>
    <target>MOON</target>
    <system>EARTH</system>
    <diameter>81.12</diameter>
    <centerlatitude>72.49</centerlatitude>
    <centerlongitude>315.02</centerlongitude>
    <featuretype code="AA">Crater, craters</featuretype>
  </feature>
  <feature>
    <cleanName>Andel</cleanName>
    <target>MOON</target>
    <system>EARTH</system>
    <diameter>32.93</diameter>
    <centerlatitude>-10.41</centerlatitude>
    <centerlongitude>12.38</centerlongitude>
    <featuretype code="AA">Crater, craters</featuretype>
  </feature>
  <feature>
    <cleanName>Anders</cleanName>
    <target>MOON</target>
    <system>EARTH</system>
    <diameter>41.33</diameter>
    <centerlatitude>-41.31</centerlatitude>
    <centerlongitude>216.7</centerlongitude>
    <featuretype code="AA">Crater, craters</featuretype>
  </feature>
  <feature>
    <cleanName>Anders Earthrise</cleanName>
    <target>MOON</target>
    <system>EARTH</system>
    <diameter>40.15</diameter>
    <centerlatitude>-11.73</centerlatitude>
    <centerlongitude>100.47</centerlongitude>
    <featuretype code="AA">Crater, craters</featuretype>
  </feature>
  <feature>
    <cleanName>Anderson</cleanName>
    <target>MOON</target>
    <system>EARTH</system>
    <diameter>105.33</diameter>
    <centerlatitude>15.5</centerlatitude>
    <centerlongitude>170.79</centerlongitude>
    <featuretype code="AA">Crater, craters</featuretype>
  </feature>
  <feature>
    <cleanName>Andersson</cleanName>
    <target>MOON</target>
    <system>EARTH</system>
    <diameter>13.42</diameter>
    <centerlatitude>-49.95</centerlatitude>
    <centerlongitude>264.54</centerlongitude>
    <featuretype code="AA">Crater, craters</featuretype>
  </feature>
  <feature>
    <cleanName>Andronov</cleanName>
    <target>MOON</target>
    <system>EARTH</system>
    <diameter>16.57</diameter>
    <centerlatitude>-22.68</centerlatitude>
    <centerlongitude>146.11</centerlongitude>
    <featuretype code="AA">Crater, craters</featuretype>
  </feature>
  <feature>
    <cleanName>Ango</cleanName>
    <target>MOON</target>
    <system>EARTH</system>
    <diameter>0.87</diameter>
    <centerlatitude>20.48</centerlatitude>
    <centerlongitude>327.66</centerlongitude>
    <featuretype code="AA">Crater, craters</featuretype>
  </feature>
  <feature>
    <cleanName>Angstrom</cleanName>
    <target>MOON</target>
    <system>EARTH</system>
    <diameter>9.55</diameter>
    <centerlatitude>29.9</centerlatitude>
    <centerlongitude>318.33</centerlongitude>
    <featuretype code="AA">Crater, craters</featuretype>
  </feature>
  <feature>
    <cleanName>Ann</cleanName>
    <target>MOON</target>
    <system>EARTH</system>
    <diameter>2.12</diameter>
    <centerlatitude>25.11</centerlatitude>
    <centerlongitude>359.95</centerlongitude>
    <featuretype code="AA">Crater, craters</featuretype>
  </feature>
  <feature>
    <cleanName>Annegrit</cleanName>
    <target>MOON</target>
    <system>EARTH</system>
    <diameter>1.29</diameter>
    <centerlatitude>29.43</centerlatitude>
    <centerlongitude>334.36</centerlongitude>
    <featuretype code="AA">Crater, craters</featuretype>
  </feature>
  <feature>
    <cleanName>Ansgarius</cleanName>
    <target>MOON</target>
    <system>EARTH</system>
    <diameter>91.42</diameter>
    <centerlatitude>-12.92</centerlatitude>
    <centerlongitude>79.72</centerlongitude>
    <featuretype code="AA">Crater, craters</featuretype>
  </feature>
  <feature>
    <cleanName>Antoniadi</cleanName>
    <target>MOON</target>
    <system>EARTH</system>
    <diameter>137.92</diameter>
    <centerlatitude>-69.3</centerlatitude>
    <centerlongitude>186.94</centerlongitude>
    <featuretype code="AA">Crater, craters</featuretype>
  </feature>
  <feature>
    <cleanName>Anuchin</cleanName>
    <target>MOON</target>
    <system>EARTH</system>
    <diameter>62.14</diameter>
    <centerlatitude>-48.85</centerlatitude>
    <centerlongitude>101.66</centerlongitude>
    <featuretype code="AA">Crater, craters</featuretype>
  </feature>
  <feature>
    <cleanName>Anville</cleanName>
    <target>MOON</target>
    <system>EARTH</system>
    <diameter>10.26</diameter>
    <centerlatitude>1.84</centerlatitude>
    <centerlongitude>49.51</centerlongitude>
    <featuretype code="AA">Crater, craters</featuretype>
  </feature>
  <feature>
    <cleanName>Apianus</cleanName>
    <target>MOON</target>
    <system>EARTH</system>
    <diameter>63.44</diameter>
    <centerlatitude>-26.96</centerlatitude>
    <centerlongitude>7.87</centerlongitude>
    <featuretype code="AA">Crater, craters</featuretype>
  </feature>
  <feature>
    <cleanName>Apollo</cleanName>
    <target>MOON</target>
    <system>EARTH</system>
    <diameter>524.23</diameter>
    <centerlatitude>-35.69</centerlatitude>
    <centerlongitude>208.52</centerlongitude>
    <featuretype code="AA">Crater, craters</featuretype>
  </feature>
  <feature>
    <cleanName>Apollonius</cleanName>
    <target>MOON</target>
    <system>EARTH</system>
    <diameter>50.66</diameter>
    <centerlatitude>4.51</centerlatitude>
    <centerlongitude>60.96</centerlongitude>
    <featuretype code="AA">Crater, craters</featuretype>
  </feature>
  <feature>
    <cleanName>Appleton</cleanName>
    <target>MOON</target>
    <system>EARTH</system>
    <diameter>64.59</diameter>
    <centerlatitude>37.05</centerlatitude>
    <centerlongitude>158.17</centerlongitude>
    <featuretype code="AA">Crater, craters</featuretype>
  </feature>
  <feature>
    <cleanName>Arago</cleanName>
    <target>MOON</target>
    <system>EARTH</system>
    <diameter>25.51</diameter>
    <centerlatitude>6.15</centerlatitude>
    <centerlongitude>21.43</centerlongitude>
    <featuretype code="AA">Crater, craters</featuretype>
  </feature>
  <feature>
    <cleanName>Aratus</cleanName>
    <target>MOON</target>
    <system>EARTH</system>
    <diameter>10.23</diameter>
    <centerlatitude>23.58</centerlatitude>
    <centerlongitude>4.51</centerlongitude>
    <featuretype code="AA">Crater, craters</featuretype>
  </feature>
  <feature>
    <cleanName>Archimedes</cleanName>
    <target>MOON</target>
    <system>EARTH</system>
    <diameter>81.04</diameter>
    <centerlatitude>29.72</centerlatitude>
    <centerlongitude>356.01</centerlongitude>
    <featuretype code="AA">Crater, craters</featuretype>
  </feature>
  <feature>
    <cleanName>Archytas</cleanName>
    <target>MOON</target>
    <system>EARTH</system>
    <diameter>31.95</diameter>
    <centerlatitude>58.87</centerlatitude>
    <centerlongitude>4.99</centerlongitude>
    <featuretype code="AA">Crater, craters</featuretype>
  </feature>
  <feature>
    <cleanName>Argelander</cleanName>
    <target>MOON</target>
    <system>EARTH</system>
    <diameter>33.72</diameter>
    <centerlatitude>-16.55</centerlatitude>
    <centerlongitude>5.8</centerlongitude>
    <featuretype code="AA">Crater, craters</featuretype>
  </feature>
  <feature>
    <cleanName>Ariadaeus</cleanName>
    <target>MOON</target>
    <system>EARTH</system>
    <diameter>10.4</diameter>
    <centerlatitude>4.55</centerlatitude>
    <centerlongitude>17.28</centerlongitude>
    <featuretype code="AA">Crater, craters</featuretype>
  </feature>
  <feature>
    <cleanName>Aristarchus</cleanName>
    <target>MOON</target>
    <system>EARTH</system>
    <diameter>39.99</diameter>
    <centerlatitude>23.73</centerlatitude>
    <centerlongitude>312.51</centerlongitude>
    <featuretype code="AA">Crater, craters</featuretype>
  </feature>
  <feature>
    <cleanName>Aristillus</cleanName>
    <target>MOON</target>
    <system>EARTH</system>
    <diameter>54.37</diameter>
    <centerlatitude>33.88</centerlatitude>
    <centerlongitude>1.21</centerlongitude>
    <featuretype code="AA">Crater, craters</featuretype>
  </feature>
  <feature>
    <cleanName>Aristoteles</cleanName>
    <target>MOON</target>
    <system>EARTH</system>
    <diameter>87.57</diameter>
    <centerlatitude>50.24</centerlatitude>
    <centerlongitude>17.32</centerlongitude>
    <featuretype code="AA">Crater, craters</featuretype>
  </feature>
  <feature>
    <cleanName>Arminski</cleanName>
    <target>MOON</target>
    <system>EARTH</system>
    <diameter>26.76</diameter>
    <centerlatitude>-16.36</centerlatitude>
    <centerlongitude>154.22</centerlongitude>
    <featuretype code="AA">Crater, craters</featuretype>
  </feature>
  <feature>
    <cleanName>Armstrong</cleanName>
    <target>MOON</target>
    <system>EARTH</system>
    <diameter>4.21</diameter>
    <centerlatitude>1.35</centerlatitude>
    <centerlongitude>24.94</centerlongitude>
    <featuretype code="AA">Crater, craters</featuretype>
  </feature>
  <feature>
    <cleanName>Arnold</cleanName>
    <target>MOON</target>
    <system>EARTH</system>
    <diameter>93.13</diameter>
    <centerlatitude>66.98</centerlatitude>
    <centerlongitude>35.83</centerlongitude>
    <featuretype code="AA">Crater, craters</featuretype>
  </feature>
  <feature>
    <cleanName>Arrhenius</cleanName>
    <target>MOON</target>
    <system>EARTH</system>
    <diameter>40.93</diameter>
    <centerlatitude>-55.58</centerlatitude>
    <centerlongitude>268.55</centerlongitude>
    <featuretype code="AA">Crater, craters</featuretype>
  </feature>
  <feature>
    <cleanName>Artamonov</cleanName>
    <target>MOON</target>
    <system>EARTH</system>
    <diameter>62.45</diameter>
    <centerlatitude>25.44</centerlatitude>
    <centerlongitude>103.79</centerlongitude>
    <featuretype code="AA">Crater, craters</featuretype>
  </feature>
  <feature>
    <cleanName>Artem ev</cleanName>
    <target>MOON</target>
    <system>EARTH</system>
    <diameter>66.39</diameter>
    <centerlatitude>10.4</centerlatitude>
    <centerlongitude>214.78</centerlongitude>
    <featuretype code="AA">Crater, craters</featuretype>
  </feature>
  <feature>
    <cleanName>Artemis</cleanName>
    <target>MOON</target>
    <system>EARTH</system>
    <diameter>2.28</diameter>
    <centerlatitude>25.03</centerlatitude>
    <centerlongitude>334.64</centerlongitude>
    <featuretype code="AA">Crater, craters</featuretype>
  </feature>
  <feature>
    <cleanName>Artsimovich</cleanName>
    <target>MOON</target>
    <system>EARTH</system>
    <diameter>7.96</diameter>
    <centerlatitude>27.61</centerlatitude>
    <centerlongitude>323.37</centerlongitude>
    <featuretype code="AA">Crater, craters</featuretype>
  </feature>
  <feature>
    <cleanName>Aryabhata</cleanName>
    <target>MOON</target>
    <system>EARTH</system>
    <diameter>21.89</diameter>
    <centerlatitude>6.2</centerlatitude>
    <centerlongitude>35.17</centerlongitude>
    <featuretype code="AA">Crater, craters</featuretype>
  </feature>
  <feature>
    <cleanName>Arzachel</cleanName>
    <target>MOON</target>
    <system>EARTH</system>
    <diameter>96.99</diameter>
    <centerlatitude>-18.26</centerlatitude>
    <centerlongitude>358.07</centerlongitude>
    <featuretype code="AA">Crater, craters</featuretype>
  </feature>
  <feature>
    <cleanName>Asada</cleanName>
    <target>MOON</target>
    <system>EARTH</system>
    <diameter>12.37</diameter>
    <centerlatitude>7.25</centerlatitude>
    <centerlongitude>49.9</centerlongitude>
    <featuretype code="AA">Crater, craters</featuretype>
  </feature>
  <feature>
    <cleanName>Asclepi</cleanName>
    <target>MOON</target>
    <system>EARTH</system>
    <diameter>40.56</diameter>
    <centerlatitude>-55.19</centerlatitude>
    <centerlongitude>25.52</centerlongitude>
    <featuretype code="AA">Crater, craters</featuretype>
  </feature>
  <feature>
    <cleanName>Ashbrook</cleanName>
    <target>MOON</target>
    <system>EARTH</system>
    <diameter>157.68</diameter>
    <centerlatitude>-81.1</centerlatitude>
    <centerlongitude>249.42</centerlongitude>
    <featuretype code="AA">Crater, craters</featuretype>
  </feature>
  <feature>
    <cleanName>Aston</cleanName>
    <target>MOON</target>
    <system>EARTH</system>
    <diameter>44.48</diameter>
    <centerlatitude>32.77</centerlatitude>
    <centerlongitude>272.32</centerlongitude>
    <featuretype code="AA">Crater, craters</featuretype>
  </feature>
  <feature>
    <cleanName>Atlas</cleanName>
    <target>MOON</target>
    <system>EARTH</system>
    <diameter>88.12</diameter>
    <centerlatitude>46.74</centerlatitude>
    <centerlongitude>44.38</centerlongitude>
    <featuretype code="AA">Crater, craters</featuretype>
  </feature>
  <feature>
    <cleanName>Atwood</cleanName>
    <target>MOON</target>
    <system>EARTH</system>
    <diameter>28.64</diameter>
    <centerlatitude>-5.88</centerlatitude>
    <centerlongitude>57.78</centerlongitude>
    <featuretype code="AA">Crater, craters</featuretype>
  </feature>
  <feature>
    <cleanName>Autolycus</cleanName>
    <target>MOON</target>
    <system>EARTH</system>
    <diameter>38.88</diameter>
    <centerlatitude>30.68</centerlatitude>
    <centerlongitude>1.49</centerlongitude>
    <featuretype code="AA">Crater, craters</featuretype>
  </feature>
  <feature>
    <cleanName>Auwers</cleanName>
    <target>MOON</target>
    <system>EARTH</system>
    <diameter>19.64</diameter>
    <centerlatitude>15</centerlatitude>
    <centerlongitude>17.12</centerlongitude>
    <featuretype code="AA">Crater, craters</featuretype>
  </feature>
  <feature>
    <cleanName>Auzout</cleanName>
    <target>MOON</target>
    <system>EARTH</system>
    <diameter>32.92</diameter>
    <centerlatitude>10.21</centerlatitude>
    <centerlongitude>64.01</centerlongitude>
    <featuretype code="AA">Crater, craters</featuretype>
  </feature>
  <feature>
    <cleanName>Avery</cleanName>
    <target>MOON</target>
    <system>EARTH</system>
    <diameter>10.73</diameter>
    <centerlatitude>-1.32</centerlatitude>
    <centerlongitude>81.37</centerlongitude>
    <featuretype code="AA">Crater, craters</featuretype>
  </feature>
  <feature>
    <cleanName>Avicenna</cleanName>
    <target>MOON</target>
    <system>EARTH</system>
    <diameter>72.99</diameter>
    <centerlatitude>39.63</centerlatitude>
    <centerlongitude>262.72</centerlongitude>
    <featuretype code="AA">Crater, craters</featuretype>
  </feature>
  <feature>
    <cleanName>Avogadro</cleanName>
    <target>MOON</target>
    <system>EARTH</system>
    <diameter>129.84</diameter>
    <centerlatitude>63.21</centerlatitude>
    <centerlongitude>165.36</centerlongitude>
    <featuretype code="AA">Crater, craters</featuretype>
  </feature>
  <feature>
    <cleanName>Azophi</cleanName>
    <target>MOON</target>
    <system>EARTH</system>
    <diameter>47.54</diameter>
    <centerlatitude>-22.19</centerlatitude>
    <centerlongitude>12.7</centerlongitude>
    <featuretype code="AA">Crater, craters</featuretype>
  </feature>
  <feature>
    <cleanName>Baade</cleanName>
    <target>MOON</target>
    <system>EARTH</system>
    <diameter>57.85</diameter>
    <centerlatitude>-44.75</centerlatitude>
    <centerlongitude>277.97</centerlongitude>
    <featuretype code="AA">Crater, craters</featuretype>
  </feature>
  <feature>
    <cleanName>Babakin</cleanName>
    <target>MOON</target>
    <system>EARTH</system>
    <diameter>19.15</diameter>
    <centerlatitude>-20.81</centerlatitude>
    <centerlongitude>123.26</centerlongitude>
    <featuretype code="AA">Crater, craters</featuretype>
  </feature>
  <feature>
    <cleanName>Babbage</cleanName>
    <target>MOON</target>
    <system>EARTH</system>
    <diameter>146.56</diameter>
    <centerlatitude>59.56</centerlatitude>
    <centerlongitude>302.62</centerlongitude>
    <featuretype code="AA">Crater, craters</featuretype>
  </feature>
  <feature>
    <cleanName>Babcock</cleanName>
    <target>MOON</target>
    <system>EARTH</system>
    <diameter>95.28</diameter>
    <centerlatitude>4.13</centerlatitude>
    <centerlongitude>94.14</centerlongitude>
    <featuretype code="AA">Crater, craters</featuretype>
  </feature>
  <feature>
    <cleanName>Back</cleanName>
    <target>MOON</target>
    <system>EARTH</system>
    <diameter>34.63</diameter>
    <centerlatitude>1.2</centerlatitude>
    <centerlongitude>80.67</centerlongitude>
    <featuretype code="AA">Crater, craters</featuretype>
  </feature>
  <feature>
    <cleanName>Backlund</cleanName>
    <target>MOON</target>
    <system>EARTH</system>
    <diameter>75.46</diameter>
    <centerlatitude>-16.22</centerlatitude>
    <centerlongitude>103.35</centerlongitude>
    <featuretype code="AA">Crater, craters</featuretype>
  </feature>
  <feature>
    <cleanName>Baco</cleanName>
    <target>MOON</target>
    <system>EARTH</system>
    <diameter>65.31</diameter>
    <centerlatitude>-51.04</centerlatitude>
    <centerlongitude>19.1</centerlongitude>
    <featuretype code="AA">Crater, craters</featuretype>
  </feature>
  <feature>
    <cleanName>Baillaud</cleanName>
    <target>MOON</target>
    <system>EARTH</system>
    <diameter>89.44</diameter>
    <centerlatitude>74.61</centerlatitude>
    <centerlongitude>37.35</centerlongitude>
    <featuretype code="AA">Crater, craters</featuretype>
  </feature>
  <feature>
    <cleanName>Bailly</cleanName>
    <target>MOON</target>
    <system>EARTH</system>
    <diameter>300.56</diameter>
    <centerlatitude>-66.82</centerlatitude>
    <centerlongitude>291.1</centerlongitude>
    <featuretype code="AA">Crater, craters</featuretype>
  </feature>
  <feature>
    <cleanName>Baily</cleanName>
    <target>MOON</target>
    <system>EARTH</system>
    <diameter>25.68</diameter>
    <centerlatitude>49.78</centerlatitude>
    <centerlongitude>30.56</centerlongitude>
    <featuretype code="AA">Crater, craters</featuretype>
  </feature>
  <feature>
    <cleanName>Balandin</cleanName>
    <target>MOON</target>
    <system>EARTH</system>
    <diameter>11.81</diameter>
    <centerlatitude>-18.94</centerlatitude>
    <centerlongitude>152.58</centerlongitude>
    <featuretype code="AA">Crater, craters</featuretype>
  </feature>
  <feature>
    <cleanName>Balboa</cleanName>
    <target>MOON</target>
    <system>EARTH</system>
    <diameter>69.19</diameter>
    <centerlatitude>19.24</centerlatitude>
    <centerlongitude>276.69</centerlongitude>
    <featuretype code="AA">Crater, craters</featuretype>
  </feature>
  <feature>
    <cleanName>Baldet</cleanName>
    <target>MOON</target>
    <system>EARTH</system>
    <diameter>55.76</diameter>
    <centerlatitude>-53.32</centerlatitude>
    <centerlongitude>208.04</centerlongitude>
    <featuretype code="AA">Crater, craters</featuretype>
  </feature>
  <feature>
    <cleanName>Ball</cleanName>
    <target>MOON</target>
    <system>EARTH</system>
    <diameter>40.31</diameter>
    <centerlatitude>-35.92</centerlatitude>
    <centerlongitude>351.61</centerlongitude>
    <featuretype code="AA">Crater, craters</featuretype>
  </feature>
  <feature>
    <cleanName>Balmer</cleanName>
    <target>MOON</target>
    <system>EARTH</system>
    <diameter>136.3</diameter>
    <centerlatitude>-20.27</centerlatitude>
    <centerlongitude>70.22</centerlongitude>
    <featuretype code="AA">Crater, craters</featuretype>
  </feature>
  <feature>
    <cleanName>Banachiewicz</cleanName>
    <target>MOON</target>
    <system>EARTH</system>
    <diameter>99.09</diameter>
    <centerlatitude>5.28</centerlatitude>
    <centerlongitude>80.01</centerlongitude>
    <featuretype code="AA">Crater, craters</featuretype>
  </feature>
  <feature>
    <cleanName>Bancroft</cleanName>
    <target>MOON</target>
    <system>EARTH</system>
    <diameter>12.5</diameter>
    <centerlatitude>28.07</centerlatitude>
    <centerlongitude>353.57</centerlongitude>
    <featuretype code="AA">Crater, craters</featuretype>
  </feature>
  <feature>
    <cleanName>Banting</cleanName>
    <target>MOON</target>
    <system>EARTH</system>
    <diameter>5.15</diameter>
    <centerlatitude>26.58</centerlatitude>
    <centerlongitude>16.43</centerlongitude>
    <featuretype code="AA">Crater, craters</featuretype>
  </feature>
  <feature>
    <cleanName>Barbier</cleanName>
    <target>MOON</target>
    <system>EARTH</system>
    <diameter>65.38</diameter>
    <centerlatitude>-23.85</centerlatitude>
    <centerlongitude>157.93</centerlongitude>
    <featuretype code="AA">Crater, craters</featuretype>
  </feature>
  <feature>
    <cleanName>Barkla</cleanName>
    <target>MOON</target>
    <system>EARTH</system>
    <diameter>40.9</diameter>
    <centerlatitude>-10.67</centerlatitude>
    <centerlongitude>67.22</centerlongitude>
    <featuretype code="AA">Crater, craters</featuretype>
  </feature>
  <feature>
    <cleanName>Barnard</cleanName>
    <target>MOON</target>
    <system>EARTH</system>
    <diameter>115.73</diameter>
    <centerlatitude>-29.79</centerlatitude>
    <centerlongitude>85.95</centerlongitude>
    <featuretype code="AA">Crater, craters</featuretype>
  </feature>
  <feature>
    <cleanName>Barocius</cleanName>
    <target>MOON</target>
    <system>EARTH</system>
    <diameter>82.72</diameter>
    <centerlatitude>-44.98</centerlatitude>
    <centerlongitude>16.81</centerlongitude>
    <featuretype code="AA">Crater, craters</featuretype>
  </feature>
  <feature>
    <cleanName>Barringer</cleanName>
    <target>MOON</target>
    <system>EARTH</system>
    <diameter>66.89</diameter>
    <centerlatitude>-28.22</centerlatitude>
    <centerlongitude>209.57</centerlongitude>
    <featuretype code="AA">Crater, craters</featuretype>
  </feature>
  <feature>
    <cleanName>Barrow</cleanName>
    <target>MOON</target>
    <system>EARTH</system>
    <diameter>93.82</diameter>
    <centerlatitude>71.28</centerlatitude>
    <centerlongitude>7.59</centerlongitude>
    <featuretype code="AA">Crater, craters</featuretype>
  </feature>
  <feature>
    <cleanName>Bartels</cleanName>
    <target>MOON</target>
    <system>EARTH</system>
    <diameter>54.95</diameter>
    <centerlatitude>24.51</centerlatitude>
    <centerlongitude>270.15</centerlongitude>
    <featuretype code="AA">Crater, craters</featuretype>
  </feature>
  <feature>
    <cleanName>Bawa</cleanName>
    <target>MOON</target>
    <system>EARTH</system>
    <diameter>1.57</diameter>
    <centerlatitude>-25.28</centerlatitude>
    <centerlongitude>102.56</centerlongitude>
    <featuretype code="AA">Crater, craters</featuretype>
  </feature>
  <feature>
    <cleanName>Bayer</cleanName>
    <target>MOON</target>
    <system>EARTH</system>
    <diameter>48.51</diameter>
    <centerlatitude>-51.62</centerlatitude>
    <centerlongitude>324.86</centerlongitude>
    <featuretype code="AA">Crater, craters</featuretype>
  </feature>
  <feature>
    <cleanName>Beals</cleanName>
    <target>MOON</target>
    <system>EARTH</system>
    <diameter>52.61</diameter>
    <centerlatitude>37.11</centerlatitude>
    <centerlongitude>86.58</centerlongitude>
    <featuretype code="AA">Crater, craters</featuretype>
  </feature>
  <feature>
    <cleanName>Beaumont</cleanName>
    <target>MOON</target>
    <system>EARTH</system>
    <diameter>50.69</diameter>
    <centerlatitude>-18.08</centerlatitude>
    <centerlongitude>28.82</centerlongitude>
    <featuretype code="AA">Crater, craters</featuretype>
  </feature>
  <feature>
    <cleanName>Becquerel</cleanName>
    <target>MOON</target>
    <system>EARTH</system>
    <diameter>62.86</diameter>
    <centerlatitude>40.79</centerlatitude>
    <centerlongitude>129.5</centerlongitude>
    <featuretype code="AA">Crater, craters</featuretype>
  </feature>
  <feature>
    <cleanName>Becvar</cleanName>
    <target>MOON</target>
    <system>EARTH</system>
    <diameter>66.62</diameter>
    <centerlatitude>-2.57</centerlatitude>
    <centerlongitude>125.07</centerlongitude>
    <featuretype code="AA">Crater, craters</featuretype>
  </feature>
  <feature>
    <cleanName>Beer</cleanName>
    <target>MOON</target>
    <system>EARTH</system>
    <diameter>9.06</diameter>
    <centerlatitude>27.07</centerlatitude>
    <centerlongitude>350.9</centerlongitude>
    <featuretype code="AA">Crater, craters</featuretype>
  </feature>
  <feature>
    <cleanName>Behaim</cleanName>
    <target>MOON</target>
    <system>EARTH</system>
    <diameter>56.21</diameter>
    <centerlatitude>-16.61</centerlatitude>
    <centerlongitude>79.41</centerlongitude>
    <featuretype code="AA">Crater, craters</featuretype>
  </feature>
  <feature>
    <cleanName>Beijerinck</cleanName>
    <target>MOON</target>
    <system>EARTH</system>
    <diameter>76.77</diameter>
    <centerlatitude>-13.4</centerlatitude>
    <centerlongitude>151.84</centerlongitude>
    <featuretype code="AA">Crater, craters</featuretype>
  </feature>
  <feature>
    <cleanName>Beketov</cleanName>
    <target>MOON</target>
    <system>EARTH</system>
    <diameter>8.3</diameter>
    <centerlatitude>16.23</centerlatitude>
    <centerlongitude>29.18</centerlongitude>
    <featuretype code="AA">Crater, craters</featuretype>
  </feature>
  <feature>
    <cleanName>Bela</cleanName>
    <target>MOON</target>
    <system>EARTH</system>
    <diameter>10.07</diameter>
    <centerlatitude>24.67</centerlatitude>
    <centerlongitude>2.27</centerlongitude>
    <featuretype code="AA">Crater, craters</featuretype>
  </feature>
  <feature>
    <cleanName>Bel kovich</cleanName>
    <target>MOON</target>
    <system>EARTH</system>
    <diameter>215.08</diameter>
    <centerlatitude>61.53</centerlatitude>
    <centerlongitude>90.15</centerlongitude>
    <featuretype code="AA">Crater, craters</featuretype>
  </feature>
  <feature>
    <cleanName>Bell</cleanName>
    <target>MOON</target>
    <system>EARTH</system>
    <diameter>86.33</diameter>
    <centerlatitude>21.98</centerlatitude>
    <centerlongitude>263.47</centerlongitude>
    <featuretype code="AA">Crater, craters</featuretype>
  </feature>
  <feature>
    <cleanName>Bellinsgauzen Bellingshausen </cleanName>
    <target>MOON</target>
    <system>EARTH</system>
    <diameter>63.23</diameter>
    <centerlatitude>-60.72</centerlatitude>
    <centerlongitude>195.15</centerlongitude>
    <featuretype code="AA">Crater, craters</featuretype>
  </feature>
  <feature>
    <cleanName>Bellot</cleanName>
    <target>MOON</target>
    <system>EARTH</system>
    <diameter>17.5</diameter>
    <centerlatitude>-12.48</centerlatitude>
    <centerlongitude>48.19</centerlongitude>
    <featuretype code="AA">Crater, craters</featuretype>
  </feature>
  <feature>
    <cleanName>Belopol skiy</cleanName>
    <target>MOON</target>
    <system>EARTH</system>
    <diameter>61.9</diameter>
    <centerlatitude>-17.25</centerlatitude>
    <centerlongitude>231.77</centerlongitude>
    <featuretype code="AA">Crater, craters</featuretype>
  </feature>
  <feature>
    <cleanName>Belyaev</cleanName>
    <target>MOON</target>
    <system>EARTH</system>
    <diameter>55.9</diameter>
    <centerlatitude>23.1</centerlatitude>
    <centerlongitude>143.11</centerlongitude>
    <featuretype code="AA">Crater, craters</featuretype>
  </feature>
  <feature>
    <cleanName>Benedict</cleanName>
    <target>MOON</target>
    <system>EARTH</system>
    <diameter>13.83</diameter>
    <centerlatitude>4.35</centerlatitude>
    <centerlongitude>141.54</centerlongitude>
    <featuretype code="AA">Crater, craters</featuretype>
  </feature>
  <feature>
    <cleanName>Bergman</cleanName>
    <target>MOON</target>
    <system>EARTH</system>
    <diameter>22.51</diameter>
    <centerlatitude>6.97</centerlatitude>
    <centerlongitude>137.49</centerlongitude>
    <featuretype code="AA">Crater, craters</featuretype>
  </feature>
  <feature>
    <cleanName>Bergstrand</cleanName>
    <target>MOON</target>
    <system>EARTH</system>
    <diameter>42.98</diameter>
    <centerlatitude>-18.72</centerlatitude>
    <centerlongitude>176.44</centerlongitude>
    <featuretype code="AA">Crater, craters</featuretype>
  </feature>
  <feature>
    <cleanName>Berkner</cleanName>
    <target>MOON</target>
    <system>EARTH</system>
    <diameter>87.62</diameter>
    <centerlatitude>25.13</centerlatitude>
    <centerlongitude>254.76</centerlongitude>
    <featuretype code="AA">Crater, craters</featuretype>
  </feature>
  <feature>
    <cleanName>Berlage</cleanName>
    <target>MOON</target>
    <system>EARTH</system>
    <diameter>93.75</diameter>
    <centerlatitude>-63.04</centerlatitude>
    <centerlongitude>196.39</centerlongitude>
    <featuretype code="AA">Crater, craters</featuretype>
  </feature>
  <feature>
    <cleanName>Bernoulli</cleanName>
    <target>MOON</target>
    <system>EARTH</system>
    <diameter>47.3</diameter>
    <centerlatitude>34.93</centerlatitude>
    <centerlongitude>60.61</centerlongitude>
    <featuretype code="AA">Crater, craters</featuretype>
  </feature>
  <feature>
    <cleanName>Berosus</cleanName>
    <target>MOON</target>
    <system>EARTH</system>
    <diameter>75.24</diameter>
    <centerlatitude>33.5</centerlatitude>
    <centerlongitude>69.99</centerlongitude>
    <featuretype code="AA">Crater, craters</featuretype>
  </feature>
  <feature>
    <cleanName>Berzelius</cleanName>
    <target>MOON</target>
    <system>EARTH</system>
    <diameter>48.53</diameter>
    <centerlatitude>36.55</centerlatitude>
    <centerlongitude>50.95</centerlongitude>
    <featuretype code="AA">Crater, craters</featuretype>
  </feature>
  <feature>
    <cleanName>Bessarion</cleanName>
    <target>MOON</target>
    <system>EARTH</system>
    <diameter>9.84</diameter>
    <centerlatitude>14.85</centerlatitude>
    <centerlongitude>322.69</centerlongitude>
    <featuretype code="AA">Crater, craters</featuretype>
  </feature>
  <feature>
    <cleanName>Bessel</cleanName>
    <target>MOON</target>
    <system>EARTH</system>
    <diameter>15.56</diameter>
    <centerlatitude>21.73</centerlatitude>
    <centerlongitude>17.92</centerlongitude>
    <featuretype code="AA">Crater, craters</featuretype>
  </feature>
  <feature>
    <cleanName>Bettinus</cleanName>
    <target>MOON</target>
    <system>EARTH</system>
    <diameter>71.78</diameter>
    <centerlatitude>-63.4</centerlatitude>
    <centerlongitude>314.84</centerlongitude>
    <featuretype code="AA">Crater, craters</featuretype>
  </feature>
  <feature>
    <cleanName>Bhabha</cleanName>
    <target>MOON</target>
    <system>EARTH</system>
    <diameter>70.25</diameter>
    <centerlatitude>-55.5</centerlatitude>
    <centerlongitude>194.69</centerlongitude>
    <featuretype code="AA">Crater, craters</featuretype>
  </feature>
  <feature>
    <cleanName>Bianchini</cleanName>
    <target>MOON</target>
    <system>EARTH</system>
    <diameter>37.59</diameter>
    <centerlatitude>48.78</centerlatitude>
    <centerlongitude>325.63</centerlongitude>
    <featuretype code="AA">Crater, craters</featuretype>
  </feature>
  <feature>
    <cleanName>Biela</cleanName>
    <target>MOON</target>
    <system>EARTH</system>
    <diameter>77.03</diameter>
    <centerlatitude>-54.99</centerlatitude>
    <centerlongitude>51.63</centerlongitude>
    <featuretype code="AA">Crater, craters</featuretype>
  </feature>
  <feature>
    <cleanName>Bilharz</cleanName>
    <target>MOON</target>
    <system>EARTH</system>
    <diameter>44.55</diameter>
    <centerlatitude>-5.83</centerlatitude>
    <centerlongitude>56.34</centerlongitude>
    <featuretype code="AA">Crater, craters</featuretype>
  </feature>
  <feature>
    <cleanName>Billy</cleanName>
    <target>MOON</target>
    <system>EARTH</system>
    <diameter>45.57</diameter>
    <centerlatitude>-13.83</centerlatitude>
    <centerlongitude>309.76</centerlongitude>
    <featuretype code="AA">Crater, craters</featuretype>
  </feature>
  <feature>
    <cleanName>Bingham</cleanName>
    <target>MOON</target>
    <system>EARTH</system>
    <diameter>34.99</diameter>
    <centerlatitude>8.02</centerlatitude>
    <centerlongitude>115.05</centerlongitude>
    <featuretype code="AA">Crater, craters</featuretype>
  </feature>
  <feature>
    <cleanName>Biot</cleanName>
    <target>MOON</target>
    <system>EARTH</system>
    <diameter>13.01</diameter>
    <centerlatitude>-22.7</centerlatitude>
    <centerlongitude>51.08</centerlongitude>
    <featuretype code="AA">Crater, craters</featuretype>
  </feature>
  <feature>
    <cleanName>Birkeland</cleanName>
    <target>MOON</target>
    <system>EARTH</system>
    <diameter>81.64</diameter>
    <centerlatitude>-30.17</centerlatitude>
    <centerlongitude>174.01</centerlongitude>
    <featuretype code="AA">Crater, craters</featuretype>
  </feature>
  <feature>
    <cleanName>Birkhoff</cleanName>
    <target>MOON</target>
    <system>EARTH</system>
    <diameter>329.81</diameter>
    <centerlatitude>58.45</centerlatitude>
    <centerlongitude>214.35</centerlongitude>
    <featuretype code="AA">Crater, craters</featuretype>
  </feature>
  <feature>
    <cleanName>Birmingham</cleanName>
    <target>MOON</target>
    <system>EARTH</system>
    <diameter>89.92</diameter>
    <centerlatitude>65.12</centerlatitude>
    <centerlongitude>349.3</centerlongitude>
    <featuretype code="AA">Crater, craters</featuretype>
  </feature>
  <feature>
    <cleanName>Birt</cleanName>
    <target>MOON</target>
    <system>EARTH</system>
    <diameter>15.81</diameter>
    <centerlatitude>-22.36</centerlatitude>
    <centerlongitude>351.41</centerlongitude>
    <featuretype code="AA">Crater, craters</featuretype>
  </feature>
  <feature>
    <cleanName>Bi Sheng</cleanName>
    <target>MOON</target>
    <system>EARTH</system>
    <diameter>55.27</diameter>
    <centerlatitude>78.35</centerlatitude>
    <centerlongitude>148.46</centerlongitude>
    <featuretype code="AA">Crater, craters</featuretype>
  </feature>
  <feature>
    <cleanName>Bjerknes</cleanName>
    <target>MOON</target>
    <system>EARTH</system>
    <diameter>48.18</diameter>
    <centerlatitude>-38.5</centerlatitude>
    <centerlongitude>113.69</centerlongitude>
    <featuretype code="AA">Crater, craters</featuretype>
  </feature>
  <feature>
    <cleanName>Black</cleanName>
    <target>MOON</target>
    <system>EARTH</system>
    <diameter>19.46</diameter>
    <centerlatitude>-9.2</centerlatitude>
    <centerlongitude>80.39</centerlongitude>
    <featuretype code="AA">Crater, craters</featuretype>
  </feature>
  <feature>
    <cleanName>Blackett</cleanName>
    <target>MOON</target>
    <system>EARTH</system>
    <diameter>145.31</diameter>
    <centerlatitude>-37.55</centerlatitude>
    <centerlongitude>244.16</centerlongitude>
    <featuretype code="AA">Crater, craters</featuretype>
  </feature>
  <feature>
    <cleanName>Blagg</cleanName>
    <target>MOON</target>
    <system>EARTH</system>
    <diameter>4.97</diameter>
    <centerlatitude>1.22</centerlatitude>
    <centerlongitude>1.46</centerlongitude>
    <featuretype code="AA">Crater, craters</featuretype>
  </feature>
  <feature>
    <cleanName>Blancanus</cleanName>
    <target>MOON</target>
    <system>EARTH</system>
    <diameter>105.82</diameter>
    <centerlatitude>-63.77</centerlatitude>
    <centerlongitude>338.37</centerlongitude>
    <featuretype code="AA">Crater, craters</featuretype>
  </feature>
  <feature>
    <cleanName>Blanchard</cleanName>
    <target>MOON</target>
    <system>EARTH</system>
    <diameter>37.46</diameter>
    <centerlatitude>-58.25</centerlatitude>
    <centerlongitude>266.5</centerlongitude>
    <featuretype code="AA">Crater, craters</featuretype>
  </feature>
  <feature>
    <cleanName>Blanchinus</cleanName>
    <target>MOON</target>
    <system>EARTH</system>
    <diameter>59.9</diameter>
    <centerlatitude>-25.32</centerlatitude>
    <centerlongitude>2.44</centerlongitude>
    <featuretype code="AA">Crater, craters</featuretype>
  </feature>
  <feature>
    <cleanName>Blazhko</cleanName>
    <target>MOON</target>
    <system>EARTH</system>
    <diameter>51.11</diameter>
    <centerlatitude>31.37</centerlatitude>
    <centerlongitude>212.14</centerlongitude>
    <featuretype code="AA">Crater, craters</featuretype>
  </feature>
  <feature>
    <cleanName>Bliss</cleanName>
    <target>MOON</target>
    <system>EARTH</system>
    <diameter>22.85</diameter>
    <centerlatitude>53.04</centerlatitude>
    <centerlongitude>346.22</centerlongitude>
    <featuretype code="AA">Crater, craters</featuretype>
  </feature>
  <feature>
    <cleanName>Bobillier</cleanName>
    <target>MOON</target>
    <system>EARTH</system>
    <diameter>6.04</diameter>
    <centerlatitude>19.63</centerlatitude>
    <centerlongitude>15.44</centerlongitude>
    <featuretype code="AA">Crater, craters</featuretype>
  </feature>
  <feature>
    <cleanName>Bobone</cleanName>
    <target>MOON</target>
    <system>EARTH</system>
    <diameter>32.14</diameter>
    <centerlatitude>26.7</centerlatitude>
    <centerlongitude>227.88</centerlongitude>
    <featuretype code="AA">Crater, craters</featuretype>
  </feature>
  <feature>
    <cleanName>Bode</cleanName>
    <target>MOON</target>
    <system>EARTH</system>
    <diameter>17.8</diameter>
    <centerlatitude>6.71</centerlatitude>
    <centerlongitude>357.55</centerlongitude>
    <featuretype code="AA">Crater, craters</featuretype>
  </feature>
  <feature>
    <cleanName>Boethius</cleanName>
    <target>MOON</target>
    <system>EARTH</system>
    <diameter>11.17</diameter>
    <centerlatitude>5.57</centerlatitude>
    <centerlongitude>72.33</centerlongitude>
    <featuretype code="AA">Crater, craters</featuretype>
  </feature>
  <feature>
    <cleanName>Boguslawsky</cleanName>
    <target>MOON</target>
    <system>EARTH</system>
    <diameter>94.59</diameter>
    <centerlatitude>-72.9</centerlatitude>
    <centerlongitude>43.26</centerlongitude>
    <featuretype code="AA">Crater, craters</featuretype>
  </feature>
  <feature>
    <cleanName>Bohnenberger</cleanName>
    <target>MOON</target>
    <system>EARTH</system>
    <diameter>31.74</diameter>
    <centerlatitude>-16.24</centerlatitude>
    <centerlongitude>40.06</centerlongitude>
    <featuretype code="AA">Crater, craters</featuretype>
  </feature>
  <feature>
    <cleanName>Bohr</cleanName>
    <target>MOON</target>
    <system>EARTH</system>
    <diameter>70.07</diameter>
    <centerlatitude>12.71</centerlatitude>
    <centerlongitude>273.48</centerlongitude>
    <featuretype code="AA">Crater, craters</featuretype>
  </feature>
  <feature>
    <cleanName>Bok</cleanName>
    <target>MOON</target>
    <system>EARTH</system>
    <diameter>43.03</diameter>
    <centerlatitude>-20.26</centerlatitude>
    <centerlongitude>188.42</centerlongitude>
    <featuretype code="AA">Crater, craters</featuretype>
  </feature>
  <feature>
    <cleanName>Boltzmann</cleanName>
    <target>MOON</target>
    <system>EARTH</system>
    <diameter>72.31</diameter>
    <centerlatitude>-74.82</centerlatitude>
    <centerlongitude>269.59</centerlongitude>
    <featuretype code="AA">Crater, craters</featuretype>
  </feature>
  <feature>
    <cleanName>Bolyai</cleanName>
    <target>MOON</target>
    <system>EARTH</system>
    <diameter>102.22</diameter>
    <centerlatitude>-33.85</centerlatitude>
    <centerlongitude>126.12</centerlongitude>
    <featuretype code="AA">Crater, craters</featuretype>
  </feature>
  <feature>
    <cleanName>Bombelli</cleanName>
    <target>MOON</target>
    <system>EARTH</system>
    <diameter>9.72</diameter>
    <centerlatitude>5.28</centerlatitude>
    <centerlongitude>56.19</centerlongitude>
    <featuretype code="AA">Crater, craters</featuretype>
  </feature>
  <feature>
    <cleanName>Bondarenko</cleanName>
    <target>MOON</target>
    <system>EARTH</system>
    <diameter>28.26</diameter>
    <centerlatitude>-17.24</centerlatitude>
    <centerlongitude>136.89</centerlongitude>
    <featuretype code="AA">Crater, craters</featuretype>
  </feature>
  <feature>
    <cleanName>Bonpland</cleanName>
    <target>MOON</target>
    <system>EARTH</system>
    <diameter>59.25</diameter>
    <centerlatitude>-8.38</centerlatitude>
    <centerlongitude>342.67</centerlongitude>
    <featuretype code="AA">Crater, craters</featuretype>
  </feature>
  <feature>
    <cleanName>Boole</cleanName>
    <target>MOON</target>
    <system>EARTH</system>
    <diameter>61.34</diameter>
    <centerlatitude>63.79</centerlatitude>
    <centerlongitude>272.71</centerlongitude>
    <featuretype code="AA">Crater, craters</featuretype>
  </feature>
  <feature>
    <cleanName>Borda</cleanName>
    <target>MOON</target>
    <system>EARTH</system>
    <diameter>45.4</diameter>
    <centerlatitude>-25.2</centerlatitude>
    <centerlongitude>46.52</centerlongitude>
    <featuretype code="AA">Crater, craters</featuretype>
  </feature>
  <feature>
    <cleanName>Borel</cleanName>
    <target>MOON</target>
    <system>EARTH</system>
    <diameter>4.66</diameter>
    <centerlatitude>22.37</centerlatitude>
    <centerlongitude>26.42</centerlongitude>
    <featuretype code="AA">Crater, craters</featuretype>
  </feature>
  <feature>
    <cleanName>Boris</cleanName>
    <target>MOON</target>
    <system>EARTH</system>
    <diameter>1.73</diameter>
    <centerlatitude>30.53</centerlatitude>
    <centerlongitude>326.5</centerlongitude>
    <featuretype code="AA">Crater, craters</featuretype>
  </feature>
  <feature>
    <cleanName>Borman</cleanName>
    <target>MOON</target>
    <system>EARTH</system>
    <diameter>50.72</diameter>
    <centerlatitude>-39.06</centerlatitude>
    <centerlongitude>211.75</centerlongitude>
    <featuretype code="AA">Crater, craters</featuretype>
  </feature>
  <feature>
    <cleanName>Born</cleanName>
    <target>MOON</target>
    <system>EARTH</system>
    <diameter>15.07</diameter>
    <centerlatitude>-6.05</centerlatitude>
    <centerlongitude>66.83</centerlongitude>
    <featuretype code="AA">Crater, craters</featuretype>
  </feature>
  <feature>
    <cleanName>Borya</cleanName>
    <target>MOON</target>
    <system>EARTH</system>
    <diameter>0.4</diameter>
    <centerlatitude>38.28</centerlatitude>
    <centerlongitude>324.99</centerlongitude>
    <featuretype code="AA">Crater, craters</featuretype>
  </feature>
  <feature>
    <cleanName>Bosch</cleanName>
    <target>MOON</target>
    <system>EARTH</system>
    <diameter>19.58</diameter>
    <centerlatitude>86.82</centerlatitude>
    <centerlongitude>133.54</centerlongitude>
    <featuretype code="AA">Crater, craters</featuretype>
  </feature>
  <feature>
    <cleanName>Boscovich</cleanName>
    <target>MOON</target>
    <system>EARTH</system>
    <diameter>41.53</diameter>
    <centerlatitude>9.71</centerlatitude>
    <centerlongitude>11.01</centerlongitude>
    <featuretype code="AA">Crater, craters</featuretype>
  </feature>
  <feature>
    <cleanName>Bose</cleanName>
    <target>MOON</target>
    <system>EARTH</system>
    <diameter>92.55</diameter>
    <centerlatitude>-53.95</centerlatitude>
    <centerlongitude>190.64</centerlongitude>
    <featuretype code="AA">Crater, craters</featuretype>
  </feature>
  <feature>
    <cleanName>Boss</cleanName>
    <target>MOON</target>
    <system>EARTH</system>
    <diameter>50.2</diameter>
    <centerlatitude>45.75</centerlatitude>
    <centerlongitude>88.68</centerlongitude>
    <featuretype code="AA">Crater, craters</featuretype>
  </feature>
  <feature>
    <cleanName>Bouguer</cleanName>
    <target>MOON</target>
    <system>EARTH</system>
    <diameter>22.23</diameter>
    <centerlatitude>52.32</centerlatitude>
    <centerlongitude>324.18</centerlongitude>
    <featuretype code="AA">Crater, craters</featuretype>
  </feature>
  <feature>
    <cleanName>Boussingault</cleanName>
    <target>MOON</target>
    <system>EARTH</system>
    <diameter>127.61</diameter>
    <centerlatitude>-70.21</centerlatitude>
    <centerlongitude>53.73</centerlongitude>
    <featuretype code="AA">Crater, craters</featuretype>
  </feature>
  <feature>
    <cleanName>Bowditch</cleanName>
    <target>MOON</target>
    <system>EARTH</system>
    <diameter>43.04</diameter>
    <centerlatitude>-24.97</centerlatitude>
    <centerlongitude>103.07</centerlongitude>
    <featuretype code="AA">Crater, craters</featuretype>
  </feature>
  <feature>
    <cleanName>Bowen</cleanName>
    <target>MOON</target>
    <system>EARTH</system>
    <diameter>8.09</diameter>
    <centerlatitude>17.63</centerlatitude>
    <centerlongitude>9.1</centerlongitude>
    <featuretype code="AA">Crater, craters</featuretype>
  </feature>
  <feature>
    <cleanName>Boyle</cleanName>
    <target>MOON</target>
    <system>EARTH</system>
    <diameter>57.13</diameter>
    <centerlatitude>-53.29</centerlatitude>
    <centerlongitude>177.89</centerlongitude>
    <featuretype code="AA">Crater, craters</featuretype>
  </feature>
  <feature>
    <cleanName>Brackett</cleanName>
    <target>MOON</target>
    <system>EARTH</system>
    <diameter>8.87</diameter>
    <centerlatitude>17.84</centerlatitude>
    <centerlongitude>23.54</centerlongitude>
    <featuretype code="AA">Crater, craters</featuretype>
  </feature>
  <feature>
    <cleanName>Bragg</cleanName>
    <target>MOON</target>
    <system>EARTH</system>
    <diameter>77.21</diameter>
    <centerlatitude>42.33</centerlatitude>
    <centerlongitude>256.56</centerlongitude>
    <featuretype code="AA">Crater, craters</featuretype>
  </feature>
  <feature>
    <cleanName>Brashear</cleanName>
    <target>MOON</target>
    <system>EARTH</system>
    <diameter>60.16</diameter>
    <centerlatitude>-73.54</centerlatitude>
    <centerlongitude>188.43</centerlongitude>
    <featuretype code="AA">Crater, craters</featuretype>
  </feature>
  <feature>
    <cleanName>Braude</cleanName>
    <target>MOON</target>
    <system>EARTH</system>
    <diameter>11.28</diameter>
    <centerlatitude>-81.82</centerlatitude>
    <centerlongitude>158.88</centerlongitude>
    <featuretype code="AA">Crater, craters</featuretype>
  </feature>
  <feature>
    <cleanName>Brayley</cleanName>
    <target>MOON</target>
    <system>EARTH</system>
    <diameter>14.17</diameter>
    <centerlatitude>20.9</centerlatitude>
    <centerlongitude>323.06</centerlongitude>
    <featuretype code="AA">Crater, craters</featuretype>
  </feature>
  <feature>
    <cleanName>Bredikhin</cleanName>
    <target>MOON</target>
    <system>EARTH</system>
    <diameter>61.68</diameter>
    <centerlatitude>17.25</centerlatitude>
    <centerlongitude>201.63</centerlongitude>
    <featuretype code="AA">Crater, craters</featuretype>
  </feature>
  <feature>
    <cleanName>Breislak</cleanName>
    <target>MOON</target>
    <system>EARTH</system>
    <diameter>48.64</diameter>
    <centerlatitude>-48.31</centerlatitude>
    <centerlongitude>18.31</centerlongitude>
    <featuretype code="AA">Crater, craters</featuretype>
  </feature>
  <feature>
    <cleanName>Brenner</cleanName>
    <target>MOON</target>
    <system>EARTH</system>
    <diameter>90.01</diameter>
    <centerlatitude>-39.09</centerlatitude>
    <centerlongitude>39.11</centerlongitude>
    <featuretype code="AA">Crater, craters</featuretype>
  </feature>
  <feature>
    <cleanName>Brewster</cleanName>
    <target>MOON</target>
    <system>EARTH</system>
    <diameter>9.83</diameter>
    <centerlatitude>23.27</centerlatitude>
    <centerlongitude>34.69</centerlongitude>
    <featuretype code="AA">Crater, craters</featuretype>
  </feature>
  <feature>
    <cleanName>Brianchon</cleanName>
    <target>MOON</target>
    <system>EARTH</system>
    <diameter>137.26</diameter>
    <centerlatitude>74.75</centerlatitude>
    <centerlongitude>271.64</centerlongitude>
    <featuretype code="AA">Crater, craters</featuretype>
  </feature>
  <feature>
    <cleanName>Bridgman</cleanName>
    <target>MOON</target>
    <system>EARTH</system>
    <diameter>81.89</diameter>
    <centerlatitude>43.39</centerlatitude>
    <centerlongitude>136.98</centerlongitude>
    <featuretype code="AA">Crater, craters</featuretype>
  </feature>
  <feature>
    <cleanName>Briggs</cleanName>
    <target>MOON</target>
    <system>EARTH</system>
    <diameter>36.75</diameter>
    <centerlatitude>26.45</centerlatitude>
    <centerlongitude>290.81</centerlongitude>
    <featuretype code="AA">Crater, craters</featuretype>
  </feature>
  <feature>
    <cleanName>Brisbane</cleanName>
    <target>MOON</target>
    <system>EARTH</system>
    <diameter>44.32</diameter>
    <centerlatitude>-49.2</centerlatitude>
    <centerlongitude>68.76</centerlongitude>
    <featuretype code="AA">Crater, craters</featuretype>
  </feature>
  <feature>
    <cleanName>Bronk</cleanName>
    <target>MOON</target>
    <system>EARTH</system>
    <diameter>66.16</diameter>
    <centerlatitude>25.9</centerlatitude>
    <centerlongitude>225.33</centerlongitude>
    <featuretype code="AA">Crater, craters</featuretype>
  </feature>
  <feature>
    <cleanName>Brouwer</cleanName>
    <target>MOON</target>
    <system>EARTH</system>
    <diameter>119.6</diameter>
    <centerlatitude>-35.82</centerlatitude>
    <centerlongitude>235.25</centerlongitude>
    <featuretype code="AA">Crater, craters</featuretype>
  </feature>
  <feature>
    <cleanName>Brown</cleanName>
    <target>MOON</target>
    <system>EARTH</system>
    <diameter>34.03</diameter>
    <centerlatitude>-46.53</centerlatitude>
    <centerlongitude>342.01</centerlongitude>
    <featuretype code="AA">Crater, craters</featuretype>
  </feature>
  <feature>
    <cleanName>Bruce</cleanName>
    <target>MOON</target>
    <system>EARTH</system>
    <diameter>6.14</diameter>
    <centerlatitude>1.16</centerlatitude>
    <centerlongitude>0.37</centerlongitude>
    <featuretype code="AA">Crater, craters</featuretype>
  </feature>
  <feature>
    <cleanName>Brunner</cleanName>
    <target>MOON</target>
    <system>EARTH</system>
    <diameter>50.66</diameter>
    <centerlatitude>-9.86</centerlatitude>
    <centerlongitude>90.91</centerlongitude>
    <featuretype code="AA">Crater, craters</featuretype>
  </feature>
  <feature>
    <cleanName>Buch</cleanName>
    <target>MOON</target>
    <system>EARTH</system>
    <diameter>51.31</diameter>
    <centerlatitude>-38.9</centerlatitude>
    <centerlongitude>17.68</centerlongitude>
    <featuretype code="AA">Crater, craters</featuretype>
  </feature>
  <feature>
    <cleanName>Buffon</cleanName>
    <target>MOON</target>
    <system>EARTH</system>
    <diameter>105.76</diameter>
    <centerlatitude>-40.64</centerlatitude>
    <centerlongitude>226.47</centerlongitude>
    <featuretype code="AA">Crater, craters</featuretype>
  </feature>
  <feature>
    <cleanName>Buisson</cleanName>
    <target>MOON</target>
    <system>EARTH</system>
    <diameter>61.27</diameter>
    <centerlatitude>-1.47</centerlatitude>
    <centerlongitude>112.95</centerlongitude>
    <featuretype code="AA">Crater, craters</featuretype>
  </feature>
  <feature>
    <cleanName>Bullialdus</cleanName>
    <target>MOON</target>
    <system>EARTH</system>
    <diameter>60.72</diameter>
    <centerlatitude>-20.75</centerlatitude>
    <centerlongitude>337.74</centerlongitude>
    <featuretype code="AA">Crater, craters</featuretype>
  </feature>
  <feature>
    <cleanName>Bunsen</cleanName>
    <target>MOON</target>
    <system>EARTH</system>
    <diameter>55.22</diameter>
    <centerlatitude>41.4</centerlatitude>
    <centerlongitude>274.54</centerlongitude>
    <featuretype code="AA">Crater, craters</featuretype>
  </feature>
  <feature>
    <cleanName>Burckhardt</cleanName>
    <target>MOON</target>
    <system>EARTH</system>
    <diameter>54.36</diameter>
    <centerlatitude>31.11</centerlatitude>
    <centerlongitude>56.39</centerlongitude>
    <featuretype code="AA">Crater, craters</featuretype>
  </feature>
  <feature>
    <cleanName>Burg</cleanName>
    <target>MOON</target>
    <system>EARTH</system>
    <diameter>41.04</diameter>
    <centerlatitude>45.07</centerlatitude>
    <centerlongitude>28.21</centerlongitude>
    <featuretype code="AA">Crater, craters</featuretype>
  </feature>
  <feature>
    <cleanName>Burnham</cleanName>
    <target>MOON</target>
    <system>EARTH</system>
    <diameter>24.09</diameter>
    <centerlatitude>-13.92</centerlatitude>
    <centerlongitude>7.25</centerlongitude>
    <featuretype code="AA">Crater, craters</featuretype>
  </feature>
  <feature>
    <cleanName>Busching</cleanName>
    <target>MOON</target>
    <system>EARTH</system>
    <diameter>53.49</diameter>
    <centerlatitude>-38.04</centerlatitude>
    <centerlongitude>19.96</centerlongitude>
    <featuretype code="AA">Crater, craters</featuretype>
  </feature>
  <feature>
    <cleanName>Butlerov</cleanName>
    <target>MOON</target>
    <system>EARTH</system>
    <diameter>38.77</diameter>
    <centerlatitude>12.05</centerlatitude>
    <centerlongitude>251.19</centerlongitude>
    <featuretype code="AA">Crater, craters</featuretype>
  </feature>
  <feature>
    <cleanName>Buys Ballot</cleanName>
    <target>MOON</target>
    <system>EARTH</system>
    <diameter>66.38</diameter>
    <centerlatitude>20.86</centerlatitude>
    <centerlongitude>174.82</centerlongitude>
    <featuretype code="AA">Crater, craters</featuretype>
  </feature>
  <feature>
    <cleanName>Byrd</cleanName>
    <target>MOON</target>
    <system>EARTH</system>
    <diameter>97.49</diameter>
    <centerlatitude>85.43</centerlatitude>
    <centerlongitude>10.07</centerlongitude>
    <featuretype code="AA">Crater, craters</featuretype>
  </feature>
  <feature>
    <cleanName>Byrgius</cleanName>
    <target>MOON</target>
    <system>EARTH</system>
    <diameter>84.46</diameter>
    <centerlatitude>-24.73</centerlatitude>
    <centerlongitude>294.62</centerlongitude>
    <featuretype code="AA">Crater, craters</featuretype>
  </feature>
  <feature>
    <cleanName>Cabannes</cleanName>
    <target>MOON</target>
    <system>EARTH</system>
    <diameter>81.3</diameter>
    <centerlatitude>-61.24</centerlatitude>
    <centerlongitude>189.79</centerlongitude>
    <featuretype code="AA">Crater, craters</featuretype>
  </feature>
  <feature>
    <cleanName>Cabeus</cleanName>
    <target>MOON</target>
    <system>EARTH</system>
    <diameter>100.58</diameter>
    <centerlatitude>-85.33</centerlatitude>
    <centerlongitude>317.87</centerlongitude>
    <featuretype code="AA">Crater, craters</featuretype>
  </feature>
  <feature>
    <cleanName>Cailleux</cleanName>
    <target>MOON</target>
    <system>EARTH</system>
    <diameter>52.85</diameter>
    <centerlatitude>-60.41</centerlatitude>
    <centerlongitude>153.5</centerlongitude>
    <featuretype code="AA">Crater, craters</featuretype>
  </feature>
  <feature>
    <cleanName>Cai Lun</cleanName>
    <target>MOON</target>
    <system>EARTH</system>
    <diameter>44.89</diameter>
    <centerlatitude>80.12</centerlatitude>
    <centerlongitude>113.66</centerlongitude>
    <featuretype code="AA">Crater, craters</featuretype>
  </feature>
  <feature>
    <cleanName>Cajal</cleanName>
    <target>MOON</target>
    <system>EARTH</system>
    <diameter>8.57</diameter>
    <centerlatitude>12.59</centerlatitude>
    <centerlongitude>31.08</centerlongitude>
    <featuretype code="AA">Crater, craters</featuretype>
  </feature>
  <feature>
    <cleanName>Cajori</cleanName>
    <target>MOON</target>
    <system>EARTH</system>
    <diameter>74.65</diameter>
    <centerlatitude>-47.67</centerlatitude>
    <centerlongitude>168.7</centerlongitude>
    <featuretype code="AA">Crater, craters</featuretype>
  </feature>
  <feature>
    <cleanName>Calippus</cleanName>
    <target>MOON</target>
    <system>EARTH</system>
    <diameter>34.03</diameter>
    <centerlatitude>38.92</centerlatitude>
    <centerlongitude>10.72</centerlongitude>
    <featuretype code="AA">Crater, craters</featuretype>
  </feature>
  <feature>
    <cleanName>Cameron</cleanName>
    <target>MOON</target>
    <system>EARTH</system>
    <diameter>10.91</diameter>
    <centerlatitude>6.19</centerlatitude>
    <centerlongitude>45.93</centerlongitude>
    <featuretype code="AA">Crater, craters</featuretype>
  </feature>
  <feature>
    <cleanName>Campanus</cleanName>
    <target>MOON</target>
    <system>EARTH</system>
    <diameter>46.41</diameter>
    <centerlatitude>-28.04</centerlatitude>
    <centerlongitude>332.1</centerlongitude>
    <featuretype code="AA">Crater, craters</featuretype>
  </feature>
  <feature>
    <cleanName>Campbell</cleanName>
    <target>MOON</target>
    <system>EARTH</system>
    <diameter>222.48</diameter>
    <centerlatitude>45.57</centerlatitude>
    <centerlongitude>152.91</centerlongitude>
    <featuretype code="AA">Crater, craters</featuretype>
  </feature>
  <feature>
    <cleanName>Cannizzaro</cleanName>
    <target>MOON</target>
    <system>EARTH</system>
    <diameter>54.51</diameter>
    <centerlatitude>55.5</centerlatitude>
    <centerlongitude>260.27</centerlongitude>
    <featuretype code="AA">Crater, craters</featuretype>
  </feature>
  <feature>
    <cleanName>Cannon</cleanName>
    <target>MOON</target>
    <system>EARTH</system>
    <diameter>57.58</diameter>
    <centerlatitude>19.88</centerlatitude>
    <centerlongitude>81.36</centerlongitude>
    <featuretype code="AA">Crater, craters</featuretype>
  </feature>
  <feature>
    <cleanName>Cantor</cleanName>
    <target>MOON</target>
    <system>EARTH</system>
    <diameter>75.72</diameter>
    <centerlatitude>38.04</centerlatitude>
    <centerlongitude>118.69</centerlongitude>
    <featuretype code="AA">Crater, craters</featuretype>
  </feature>
  <feature>
    <cleanName>Capella</cleanName>
    <target>MOON</target>
    <system>EARTH</system>
    <diameter>48.13</diameter>
    <centerlatitude>-7.65</centerlatitude>
    <centerlongitude>34.92</centerlongitude>
    <featuretype code="AA">Crater, craters</featuretype>
  </feature>
  <feature>
    <cleanName>Capuanus</cleanName>
    <target>MOON</target>
    <system>EARTH</system>
    <diameter>59.69</diameter>
    <centerlatitude>-34.09</centerlatitude>
    <centerlongitude>333.27</centerlongitude>
    <featuretype code="AA">Crater, craters</featuretype>
  </feature>
  <feature>
    <cleanName>Cardanus</cleanName>
    <target>MOON</target>
    <system>EARTH</system>
    <diameter>49.57</diameter>
    <centerlatitude>13.27</centerlatitude>
    <centerlongitude>287.5</centerlongitude>
    <featuretype code="AA">Crater, craters</featuretype>
  </feature>
  <feature>
    <cleanName>Carlini</cleanName>
    <target>MOON</target>
    <system>EARTH</system>
    <diameter>10.66</diameter>
    <centerlatitude>33.75</centerlatitude>
    <centerlongitude>335.88</centerlongitude>
    <featuretype code="AA">Crater, craters</featuretype>
  </feature>
  <feature>
    <cleanName>Carlos</cleanName>
    <target>MOON</target>
    <system>EARTH</system>
    <diameter>4.67</diameter>
    <centerlatitude>24.91</centerlatitude>
    <centerlongitude>2.28</centerlongitude>
    <featuretype code="AA">Crater, craters</featuretype>
  </feature>
  <feature>
    <cleanName>Carmichael</cleanName>
    <target>MOON</target>
    <system>EARTH</system>
    <diameter>19.73</diameter>
    <centerlatitude>19.53</centerlatitude>
    <centerlongitude>40.36</centerlongitude>
    <featuretype code="AA">Crater, craters</featuretype>
  </feature>
  <feature>
    <cleanName>Carnot</cleanName>
    <target>MOON</target>
    <system>EARTH</system>
    <diameter>126.06</diameter>
    <centerlatitude>52.09</centerlatitude>
    <centerlongitude>215.8</centerlongitude>
    <featuretype code="AA">Crater, craters</featuretype>
  </feature>
  <feature>
    <cleanName>Carol</cleanName>
    <target>MOON</target>
    <system>EARTH</system>
    <diameter>6.25</diameter>
    <centerlatitude>8.48</centerlatitude>
    <centerlongitude>122.37</centerlongitude>
    <featuretype code="AA">Crater, craters</featuretype>
  </feature>
  <feature>
    <cleanName>Carpenter</cleanName>
    <target>MOON</target>
    <system>EARTH</system>
    <diameter>59.06</diameter>
    <centerlatitude>69.52</centerlatitude>
    <centerlongitude>308.77</centerlongitude>
    <featuretype code="AA">Crater, craters</featuretype>
  </feature>
  <feature>
    <cleanName>Carrel</cleanName>
    <target>MOON</target>
    <system>EARTH</system>
    <diameter>15.59</diameter>
    <centerlatitude>10.67</centerlatitude>
    <centerlongitude>26.68</centerlongitude>
    <featuretype code="AA">Crater, craters</featuretype>
  </feature>
  <feature>
    <cleanName>Carrillo</cleanName>
    <target>MOON</target>
    <system>EARTH</system>
    <diameter>17.85</diameter>
    <centerlatitude>-2.11</centerlatitude>
    <centerlongitude>80.96</centerlongitude>
    <featuretype code="AA">Crater, craters</featuretype>
  </feature>
  <feature>
    <cleanName>Carrington</cleanName>
    <target>MOON</target>
    <system>EARTH</system>
    <diameter>27.77</diameter>
    <centerlatitude>43.97</centerlatitude>
    <centerlongitude>62.04</centerlongitude>
    <featuretype code="AA">Crater, craters</featuretype>
  </feature>
  <feature>
    <cleanName>Cartan</cleanName>
    <target>MOON</target>
    <system>EARTH</system>
    <diameter>15.62</diameter>
    <centerlatitude>4.24</centerlatitude>
    <centerlongitude>59.29</centerlongitude>
    <featuretype code="AA">Crater, craters</featuretype>
  </feature>
  <feature>
    <cleanName>Carver</cleanName>
    <target>MOON</target>
    <system>EARTH</system>
    <diameter>62.45</diameter>
    <centerlatitude>-43.46</centerlatitude>
    <centerlongitude>127.6</centerlongitude>
    <featuretype code="AA">Crater, craters</featuretype>
  </feature>
  <feature>
    <cleanName>Casatus</cleanName>
    <target>MOON</target>
    <system>EARTH</system>
    <diameter>102.85</diameter>
    <centerlatitude>-72.7</centerlatitude>
    <centerlongitude>329.25</centerlongitude>
    <featuretype code="AA">Crater, craters</featuretype>
  </feature>
  <feature>
    <cleanName>Cassegrain</cleanName>
    <target>MOON</target>
    <system>EARTH</system>
    <diameter>56.66</diameter>
    <centerlatitude>-51.95</centerlatitude>
    <centerlongitude>113.3</centerlongitude>
    <featuretype code="AA">Crater, craters</featuretype>
  </feature>
  <feature>
    <cleanName>Cassini</cleanName>
    <target>MOON</target>
    <system>EARTH</system>
    <diameter>56.88</diameter>
    <centerlatitude>40.25</centerlatitude>
    <centerlongitude>4.64</centerlongitude>
    <featuretype code="AA">Crater, craters</featuretype>
  </feature>
  <feature>
    <cleanName>Catalan</cleanName>
    <target>MOON</target>
    <system>EARTH</system>
    <diameter>26.77</diameter>
    <centerlatitude>-45.7</centerlatitude>
    <centerlongitude>272.63</centerlongitude>
    <featuretype code="AA">Crater, craters</featuretype>
  </feature>
  <feature>
    <cleanName>Catharina</cleanName>
    <target>MOON</target>
    <system>EARTH</system>
    <diameter>98.77</diameter>
    <centerlatitude>-17.98</centerlatitude>
    <centerlongitude>23.55</centerlongitude>
    <featuretype code="AA">Crater, craters</featuretype>
  </feature>
  <feature>
    <cleanName>Cauchy</cleanName>
    <target>MOON</target>
    <system>EARTH</system>
    <diameter>11.8</diameter>
    <centerlatitude>9.56</centerlatitude>
    <centerlongitude>38.63</centerlongitude>
    <featuretype code="AA">Crater, craters</featuretype>
  </feature>
  <feature>
    <cleanName>Cavalerius</cleanName>
    <target>MOON</target>
    <system>EARTH</system>
    <diameter>59.35</diameter>
    <centerlatitude>5.1</centerlatitude>
    <centerlongitude>293.07</centerlongitude>
    <featuretype code="AA">Crater, craters</featuretype>
  </feature>
  <feature>
    <cleanName>Cavendish</cleanName>
    <target>MOON</target>
    <system>EARTH</system>
    <diameter>52.64</diameter>
    <centerlatitude>-24.63</centerlatitude>
    <centerlongitude>306.22</centerlongitude>
    <featuretype code="AA">Crater, craters</featuretype>
  </feature>
  <feature>
    <cleanName>Caventou</cleanName>
    <target>MOON</target>
    <system>EARTH</system>
    <diameter>2.8</diameter>
    <centerlatitude>29.74</centerlatitude>
    <centerlongitude>330.62</centerlongitude>
    <featuretype code="AA">Crater, craters</featuretype>
  </feature>
  <feature>
    <cleanName>Cayley</cleanName>
    <target>MOON</target>
    <system>EARTH</system>
    <diameter>14.2</diameter>
    <centerlatitude>3.94</centerlatitude>
    <centerlongitude>15.09</centerlongitude>
    <featuretype code="AA">Crater, craters</featuretype>
  </feature>
  <feature>
    <cleanName>Celsius</cleanName>
    <target>MOON</target>
    <system>EARTH</system>
    <diameter>38.96</diameter>
    <centerlatitude>-34.1</centerlatitude>
    <centerlongitude>20.05</centerlongitude>
    <featuretype code="AA">Crater, craters</featuretype>
  </feature>
  <feature>
    <cleanName>Censorinus</cleanName>
    <target>MOON</target>
    <system>EARTH</system>
    <diameter>4.1</diameter>
    <centerlatitude>-0.42</centerlatitude>
    <centerlongitude>32.69</centerlongitude>
    <featuretype code="AA">Crater, craters</featuretype>
  </feature>
  <feature>
    <cleanName>Cepheus</cleanName>
    <target>MOON</target>
    <system>EARTH</system>
    <diameter>39.43</diameter>
    <centerlatitude>40.68</centerlatitude>
    <centerlongitude>45.78</centerlongitude>
    <featuretype code="AA">Crater, craters</featuretype>
  </feature>
  <feature>
    <cleanName>Chacornac</cleanName>
    <target>MOON</target>
    <system>EARTH</system>
    <diameter>50.44</diameter>
    <centerlatitude>29.88</centerlatitude>
    <centerlongitude>31.67</centerlongitude>
    <featuretype code="AA">Crater, craters</featuretype>
  </feature>
  <feature>
    <cleanName>Chadwick</cleanName>
    <target>MOON</target>
    <system>EARTH</system>
    <diameter>29.74</diameter>
    <centerlatitude>-52.85</centerlatitude>
    <centerlongitude>258.66</centerlongitude>
    <featuretype code="AA">Crater, craters</featuretype>
  </feature>
  <feature>
    <cleanName>Chaffee</cleanName>
    <target>MOON</target>
    <system>EARTH</system>
    <diameter>51.75</diameter>
    <centerlatitude>-39.06</centerlatitude>
    <centerlongitude>205.37</centerlongitude>
    <featuretype code="AA">Crater, craters</featuretype>
  </feature>
  <feature>
    <cleanName>Challis</cleanName>
    <target>MOON</target>
    <system>EARTH</system>
    <diameter>53.21</diameter>
    <centerlatitude>79.58</centerlatitude>
    <centerlongitude>9.09</centerlongitude>
    <featuretype code="AA">Crater, craters</featuretype>
  </feature>
  <feature>
    <cleanName>Chalonge</cleanName>
    <target>MOON</target>
    <system>EARTH</system>
    <diameter>25.08</diameter>
    <centerlatitude>-20.44</centerlatitude>
    <centerlongitude>243.65</centerlongitude>
    <featuretype code="AA">Crater, craters</featuretype>
  </feature>
  <feature>
    <cleanName>Chamberlin</cleanName>
    <target>MOON</target>
    <system>EARTH</system>
    <diameter>60.41</diameter>
    <centerlatitude>-58.83</centerlatitude>
    <centerlongitude>96.04</centerlongitude>
    <featuretype code="AA">Crater, craters</featuretype>
  </feature>
  <feature>
    <cleanName>Champollion</cleanName>
    <target>MOON</target>
    <system>EARTH</system>
    <diameter>48.97</diameter>
    <centerlatitude>37.39</centerlatitude>
    <centerlongitude>175.03</centerlongitude>
    <featuretype code="AA">Crater, craters</featuretype>
  </feature>
  <feature>
    <cleanName>Chandler</cleanName>
    <target>MOON</target>
    <system>EARTH</system>
    <diameter>88.6</diameter>
    <centerlatitude>43.65</centerlatitude>
    <centerlongitude>171.76</centerlongitude>
    <featuretype code="AA">Crater, craters</featuretype>
  </feature>
  <feature>
    <cleanName>Chang Heng</cleanName>
    <target>MOON</target>
    <system>EARTH</system>
    <diameter>42.65</diameter>
    <centerlatitude>18.9</centerlatitude>
    <centerlongitude>112.21</centerlongitude>
    <featuretype code="AA">Crater, craters</featuretype>
  </feature>
  <feature>
    <cleanName>Chang Ngo</cleanName>
    <target>MOON</target>
    <system>EARTH</system>
    <diameter>2.34</diameter>
    <centerlatitude>-12.69</centerlatitude>
    <centerlongitude>357.84</centerlongitude>
    <featuretype code="AA">Crater, craters</featuretype>
  </feature>
  <feature>
    <cleanName>Chant</cleanName>
    <target>MOON</target>
    <system>EARTH</system>
    <diameter>33.6</diameter>
    <centerlatitude>-40.14</centerlatitude>
    <centerlongitude>250.54</centerlongitude>
    <featuretype code="AA">Crater, craters</featuretype>
  </feature>
  <feature>
    <cleanName>Chaplygin</cleanName>
    <target>MOON</target>
    <system>EARTH</system>
    <diameter>123.39</diameter>
    <centerlatitude>-5.76</centerlatitude>
    <centerlongitude>150.24</centerlongitude>
    <featuretype code="AA">Crater, craters</featuretype>
  </feature>
  <feature>
    <cleanName>Chapman</cleanName>
    <target>MOON</target>
    <system>EARTH</system>
    <diameter>76.83</diameter>
    <centerlatitude>50.09</centerlatitude>
    <centerlongitude>259.53</centerlongitude>
    <featuretype code="AA">Crater, craters</featuretype>
  </feature>
  <feature>
    <cleanName>Chappe</cleanName>
    <target>MOON</target>
    <system>EARTH</system>
    <diameter>55.79</diameter>
    <centerlatitude>-61.29</centerlatitude>
    <centerlongitude>268.76</centerlongitude>
    <featuretype code="AA">Crater, craters</featuretype>
  </feature>
  <feature>
    <cleanName>Chappell</cleanName>
    <target>MOON</target>
    <system>EARTH</system>
    <diameter>73.92</diameter>
    <centerlatitude>54.53</centerlatitude>
    <centerlongitude>183.23</centerlongitude>
    <featuretype code="AA">Crater, craters</featuretype>
  </feature>
  <feature>
    <cleanName>Charles</cleanName>
    <target>MOON</target>
    <system>EARTH</system>
    <diameter>1.34</diameter>
    <centerlatitude>29.9</centerlatitude>
    <centerlongitude>333.63</centerlongitude>
    <featuretype code="AA">Crater, craters</featuretype>
  </feature>
  <feature>
    <cleanName>Charlier</cleanName>
    <target>MOON</target>
    <system>EARTH</system>
    <diameter>109.88</diameter>
    <centerlatitude>36.22</centerlatitude>
    <centerlongitude>228.31</centerlongitude>
    <featuretype code="AA">Crater, craters</featuretype>
  </feature>
  <feature>
    <cleanName>Chaucer</cleanName>
    <target>MOON</target>
    <system>EARTH</system>
    <diameter>45.48</diameter>
    <centerlatitude>3.39</centerlatitude>
    <centerlongitude>219.29</centerlongitude>
    <featuretype code="AA">Crater, craters</featuretype>
  </feature>
  <feature>
    <cleanName>Chauvenet</cleanName>
    <target>MOON</target>
    <system>EARTH</system>
    <diameter>77.67</diameter>
    <centerlatitude>-11.64</centerlatitude>
    <centerlongitude>137.2</centerlongitude>
    <featuretype code="AA">Crater, craters</featuretype>
  </feature>
  <feature>
    <cleanName>Chawla</cleanName>
    <target>MOON</target>
    <system>EARTH</system>
    <diameter>14.25</diameter>
    <centerlatitude>-42.48</centerlatitude>
    <centerlongitude>212.51</centerlongitude>
    <featuretype code="AA">Crater, craters</featuretype>
  </feature>
  <feature>
    <cleanName>Chebyshev</cleanName>
    <target>MOON</target>
    <system>EARTH</system>
    <diameter>179.05</diameter>
    <centerlatitude>-34.01</centerlatitude>
    <centerlongitude>227.12</centerlongitude>
    <featuretype code="AA">Crater, craters</featuretype>
  </feature>
  <feature>
    <cleanName>Chernyshev</cleanName>
    <target>MOON</target>
    <system>EARTH</system>
    <diameter>59.31</diameter>
    <centerlatitude>47.01</centerlatitude>
    <centerlongitude>174.41</centerlongitude>
    <featuretype code="AA">Crater, craters</featuretype>
  </feature>
  <feature>
    <cleanName>C Herschel</cleanName>
    <target>MOON</target>
    <system>EARTH</system>
    <diameter>13.7</diameter>
    <centerlatitude>34.48</centerlatitude>
    <centerlongitude>328.71</centerlongitude>
    <featuretype code="AA">Crater, craters</featuretype>
  </feature>
  <feature>
    <cleanName>Chevallier</cleanName>
    <target>MOON</target>
    <system>EARTH</system>
    <diameter>51.83</diameter>
    <centerlatitude>45.01</centerlatitude>
    <centerlongitude>51.57</centerlongitude>
    <featuretype code="AA">Crater, craters</featuretype>
  </feature>
  <feature>
    <cleanName>Ching Te</cleanName>
    <target>MOON</target>
    <system>EARTH</system>
    <diameter>3.7</diameter>
    <centerlatitude>20.02</centerlatitude>
    <centerlongitude>29.97</centerlongitude>
    <featuretype code="AA">Crater, craters</featuretype>
  </feature>
  <feature>
    <cleanName>Chladni</cleanName>
    <target>MOON</target>
    <system>EARTH</system>
    <diameter>13.07</diameter>
    <centerlatitude>3.99</centerlatitude>
    <centerlongitude>1.12</centerlongitude>
    <featuretype code="AA">Crater, craters</featuretype>
  </feature>
  <feature>
    <cleanName>Chretien</cleanName>
    <target>MOON</target>
    <system>EARTH</system>
    <diameter>98.63</diameter>
    <centerlatitude>-46.11</centerlatitude>
    <centerlongitude>162.99</centerlongitude>
    <featuretype code="AA">Crater, craters</featuretype>
  </feature>
  <feature>
    <cleanName>Cichus</cleanName>
    <target>MOON</target>
    <system>EARTH</system>
    <diameter>39.18</diameter>
    <centerlatitude>-33.29</centerlatitude>
    <centerlongitude>338.82</centerlongitude>
    <featuretype code="AA">Crater, craters</featuretype>
  </feature>
  <feature>
    <cleanName>Clairaut</cleanName>
    <target>MOON</target>
    <system>EARTH</system>
    <diameter>76.89</diameter>
    <centerlatitude>-47.84</centerlatitude>
    <centerlongitude>13.86</centerlongitude>
    <featuretype code="AA">Crater, craters</featuretype>
  </feature>
  <feature>
    <cleanName>Clark</cleanName>
    <target>MOON</target>
    <system>EARTH</system>
    <diameter>52.11</diameter>
    <centerlatitude>-38.67</centerlatitude>
    <centerlongitude>119.35</centerlongitude>
    <featuretype code="AA">Crater, craters</featuretype>
  </feature>
  <feature>
    <cleanName>Clausius</cleanName>
    <target>MOON</target>
    <system>EARTH</system>
    <diameter>24.2</diameter>
    <centerlatitude>-36.9</centerlatitude>
    <centerlongitude>316.07</centerlongitude>
    <featuretype code="AA">Crater, craters</featuretype>
  </feature>
  <feature>
    <cleanName>Clavius</cleanName>
    <target>MOON</target>
    <system>EARTH</system>
    <diameter>230.77</diameter>
    <centerlatitude>-58.62</centerlatitude>
    <centerlongitude>345.27</centerlongitude>
    <featuretype code="AA">Crater, craters</featuretype>
  </feature>
  <feature>
    <cleanName>Cleomedes</cleanName>
    <target>MOON</target>
    <system>EARTH</system>
    <diameter>130.77</diameter>
    <centerlatitude>27.6</centerlatitude>
    <centerlongitude>55.5</centerlongitude>
    <featuretype code="AA">Crater, craters</featuretype>
  </feature>
  <feature>
    <cleanName>Cleostratus</cleanName>
    <target>MOON</target>
    <system>EARTH</system>
    <diameter>63.23</diameter>
    <centerlatitude>60.32</centerlatitude>
    <centerlongitude>282.6</centerlongitude>
    <featuretype code="AA">Crater, craters</featuretype>
  </feature>
  <feature>
    <cleanName>Clerke</cleanName>
    <target>MOON</target>
    <system>EARTH</system>
    <diameter>6.66</diameter>
    <centerlatitude>21.68</centerlatitude>
    <centerlongitude>29.8</centerlongitude>
    <featuretype code="AA">Crater, craters</featuretype>
  </feature>
  <feature>
    <cleanName>C Mayer</cleanName>
    <target>MOON</target>
    <system>EARTH</system>
    <diameter>37.54</diameter>
    <centerlatitude>63.26</centerlatitude>
    <centerlongitude>17.31</centerlongitude>
    <featuretype code="AA">Crater, craters</featuretype>
  </feature>
  <feature>
    <cleanName>Coblentz</cleanName>
    <target>MOON</target>
    <system>EARTH</system>
    <diameter>32.66</diameter>
    <centerlatitude>-38.09</centerlatitude>
    <centerlongitude>126.65</centerlongitude>
    <featuretype code="AA">Crater, craters</featuretype>
  </feature>
  <feature>
    <cleanName>Cockcroft</cleanName>
    <target>MOON</target>
    <system>EARTH</system>
    <diameter>92.16</diameter>
    <centerlatitude>31.09</centerlatitude>
    <centerlongitude>197.09</centerlongitude>
    <featuretype code="AA">Crater, craters</featuretype>
  </feature>
  <feature>
    <cleanName>Collins</cleanName>
    <target>MOON</target>
    <system>EARTH</system>
    <diameter>2.58</diameter>
    <centerlatitude>1.3</centerlatitude>
    <centerlongitude>23.71</centerlongitude>
    <featuretype code="AA">Crater, craters</featuretype>
  </feature>
  <feature>
    <cleanName>Colombo</cleanName>
    <target>MOON</target>
    <system>EARTH</system>
    <diameter>79.02</diameter>
    <centerlatitude>-15.26</centerlatitude>
    <centerlongitude>46.02</centerlongitude>
    <featuretype code="AA">Crater, craters</featuretype>
  </feature>
  <feature>
    <cleanName>Compton</cleanName>
    <target>MOON</target>
    <system>EARTH</system>
    <diameter>164.63</diameter>
    <centerlatitude>55.86</centerlatitude>
    <centerlongitude>104.05</centerlongitude>
    <featuretype code="AA">Crater, craters</featuretype>
  </feature>
  <feature>
    <cleanName>Comrie</cleanName>
    <target>MOON</target>
    <system>EARTH</system>
    <diameter>59.25</diameter>
    <centerlatitude>23.39</centerlatitude>
    <centerlongitude>246.83</centerlongitude>
    <featuretype code="AA">Crater, craters</featuretype>
  </feature>
  <feature>
    <cleanName>Comstock</cleanName>
    <target>MOON</target>
    <system>EARTH</system>
    <diameter>73.23</diameter>
    <centerlatitude>21.59</centerlatitude>
    <centerlongitude>237.95</centerlongitude>
    <featuretype code="AA">Crater, craters</featuretype>
  </feature>
  <feature>
    <cleanName>Condon</cleanName>
    <target>MOON</target>
    <system>EARTH</system>
    <diameter>34.85</diameter>
    <centerlatitude>1.87</centerlatitude>
    <centerlongitude>60.36</centerlongitude>
    <featuretype code="AA">Crater, craters</featuretype>
  </feature>
  <feature>
    <cleanName>Condorcet</cleanName>
    <target>MOON</target>
    <system>EARTH</system>
    <diameter>74.85</diameter>
    <centerlatitude>12.1</centerlatitude>
    <centerlongitude>69.58</centerlongitude>
    <featuretype code="AA">Crater, craters</featuretype>
  </feature>
  <feature>
    <cleanName>Congreve</cleanName>
    <target>MOON</target>
    <system>EARTH</system>
    <diameter>57.61</diameter>
    <centerlatitude>-0.28</centerlatitude>
    <centerlongitude>192.16</centerlongitude>
    <featuretype code="AA">Crater, craters</featuretype>
  </feature>
  <feature>
    <cleanName>Conon</cleanName>
    <target>MOON</target>
    <system>EARTH</system>
    <diameter>20.96</diameter>
    <centerlatitude>21.66</centerlatitude>
    <centerlongitude>1.95</centerlongitude>
    <featuretype code="AA">Crater, craters</featuretype>
  </feature>
  <feature>
    <cleanName>Cook</cleanName>
    <target>MOON</target>
    <system>EARTH</system>
    <diameter>45.16</diameter>
    <centerlatitude>-17.5</centerlatitude>
    <centerlongitude>48.81</centerlongitude>
    <featuretype code="AA">Crater, craters</featuretype>
  </feature>
  <feature>
    <cleanName>Cooper</cleanName>
    <target>MOON</target>
    <system>EARTH</system>
    <diameter>51.87</diameter>
    <centerlatitude>52.68</centerlatitude>
    <centerlongitude>175.92</centerlongitude>
    <featuretype code="AA">Crater, craters</featuretype>
  </feature>
  <feature>
    <cleanName>Copernicus</cleanName>
    <target>MOON</target>
    <system>EARTH</system>
    <diameter>96.07</diameter>
    <centerlatitude>9.62</centerlatitude>
    <centerlongitude>339.92</centerlongitude>
    <featuretype code="AA">Crater, craters</featuretype>
  </feature>
  <feature>
    <cleanName>Cori</cleanName>
    <target>MOON</target>
    <system>EARTH</system>
    <diameter>67.22</diameter>
    <centerlatitude>-50.48</centerlatitude>
    <centerlongitude>207.09</centerlongitude>
    <featuretype code="AA">Crater, craters</featuretype>
  </feature>
  <feature>
    <cleanName>Coriolis</cleanName>
    <target>MOON</target>
    <system>EARTH</system>
    <diameter>78.56</diameter>
    <centerlatitude>0.56</centerlatitude>
    <centerlongitude>171.8</centerlongitude>
    <featuretype code="AA">Crater, craters</featuretype>
  </feature>
  <feature>
    <cleanName>Couder</cleanName>
    <target>MOON</target>
    <system>EARTH</system>
    <diameter>18.56</diameter>
    <centerlatitude>-4.9</centerlatitude>
    <centerlongitude>267.42</centerlongitude>
    <featuretype code="AA">Crater, craters</featuretype>
  </feature>
  <feature>
    <cleanName>Coulomb</cleanName>
    <target>MOON</target>
    <system>EARTH</system>
    <diameter>89.72</diameter>
    <centerlatitude>54.46</centerlatitude>
    <centerlongitude>245</centerlongitude>
    <featuretype code="AA">Crater, craters</featuretype>
  </feature>
  <feature>
    <cleanName>Courtney</cleanName>
    <target>MOON</target>
    <system>EARTH</system>
    <diameter>1.24</diameter>
    <centerlatitude>25.14</centerlatitude>
    <centerlongitude>329.19</centerlongitude>
    <featuretype code="AA">Crater, craters</featuretype>
  </feature>
  <feature>
    <cleanName>Cremona</cleanName>
    <target>MOON</target>
    <system>EARTH</system>
    <diameter>85.12</diameter>
    <centerlatitude>67.24</centerlatitude>
    <centerlongitude>269.14</centerlongitude>
    <featuretype code="AA">Crater, craters</featuretype>
  </feature>
  <feature>
    <cleanName>Crile</cleanName>
    <target>MOON</target>
    <system>EARTH</system>
    <diameter>9.3</diameter>
    <centerlatitude>14.21</centerlatitude>
    <centerlongitude>45.98</centerlongitude>
    <featuretype code="AA">Crater, craters</featuretype>
  </feature>
  <feature>
    <cleanName>Crocco</cleanName>
    <target>MOON</target>
    <system>EARTH</system>
    <diameter>67.5</diameter>
    <centerlatitude>-46.98</centerlatitude>
    <centerlongitude>150.51</centerlongitude>
    <featuretype code="AA">Crater, craters</featuretype>
  </feature>
  <feature>
    <cleanName>Crommelin</cleanName>
    <target>MOON</target>
    <system>EARTH</system>
    <diameter>93.48</diameter>
    <centerlatitude>-67.46</centerlatitude>
    <centerlongitude>212.05</centerlongitude>
    <featuretype code="AA">Crater, craters</featuretype>
  </feature>
  <feature>
    <cleanName>Crookes</cleanName>
    <target>MOON</target>
    <system>EARTH</system>
    <diameter>48.25</diameter>
    <centerlatitude>-10.4</centerlatitude>
    <centerlongitude>194.9</centerlongitude>
    <featuretype code="AA">Crater, craters</featuretype>
  </feature>
  <feature>
    <cleanName>Crozier</cleanName>
    <target>MOON</target>
    <system>EARTH</system>
    <diameter>22.51</diameter>
    <centerlatitude>-13.56</centerlatitude>
    <centerlongitude>50.72</centerlongitude>
    <featuretype code="AA">Crater, craters</featuretype>
  </feature>
  <feature>
    <cleanName>Cruger</cleanName>
    <target>MOON</target>
    <system>EARTH</system>
    <diameter>45.94</diameter>
    <centerlatitude>-16.68</centerlatitude>
    <centerlongitude>293.04</centerlongitude>
    <featuretype code="AA">Crater, craters</featuretype>
  </feature>
  <feature>
    <cleanName>Ctesibius</cleanName>
    <target>MOON</target>
    <system>EARTH</system>
    <diameter>32.1</diameter>
    <centerlatitude>0.83</centerlatitude>
    <centerlongitude>118.75</centerlongitude>
    <featuretype code="AA">Crater, craters</featuretype>
  </feature>
  <feature>
    <cleanName>Curie</cleanName>
    <target>MOON</target>
    <system>EARTH</system>
    <diameter>138.87</diameter>
    <centerlatitude>-23.05</centerlatitude>
    <centerlongitude>92.28</centerlongitude>
    <featuretype code="AA">Crater, craters</featuretype>
  </feature>
  <feature>
    <cleanName>Curtis</cleanName>
    <target>MOON</target>
    <system>EARTH</system>
    <diameter>2.88</diameter>
    <centerlatitude>14.57</centerlatitude>
    <centerlongitude>56.79</centerlongitude>
    <featuretype code="AA">Crater, craters</featuretype>
  </feature>
  <feature>
    <cleanName>Curtius</cleanName>
    <target>MOON</target>
    <system>EARTH</system>
    <diameter>99.29</diameter>
    <centerlatitude>-67.08</centerlatitude>
    <centerlongitude>4.4</centerlongitude>
    <featuretype code="AA">Crater, craters</featuretype>
  </feature>
  <feature>
    <cleanName>Cusanus</cleanName>
    <target>MOON</target>
    <system>EARTH</system>
    <diameter>60.87</diameter>
    <centerlatitude>71.82</centerlatitude>
    <centerlongitude>69.4</centerlongitude>
    <featuretype code="AA">Crater, craters</featuretype>
  </feature>
  <feature>
    <cleanName>Cuvier</cleanName>
    <target>MOON</target>
    <system>EARTH</system>
    <diameter>77.3</diameter>
    <centerlatitude>-50.29</centerlatitude>
    <centerlongitude>9.69</centerlongitude>
    <featuretype code="AA">Crater, craters</featuretype>
  </feature>
  <feature>
    <cleanName>Cyrano</cleanName>
    <target>MOON</target>
    <system>EARTH</system>
    <diameter>79.58</diameter>
    <centerlatitude>-20.37</centerlatitude>
    <centerlongitude>157.37</centerlongitude>
    <featuretype code="AA">Crater, craters</featuretype>
  </feature>
  <feature>
    <cleanName>Cyrillus</cleanName>
    <target>MOON</target>
    <system>EARTH</system>
    <diameter>98.09</diameter>
    <centerlatitude>-13.29</centerlatitude>
    <centerlongitude>24.07</centerlongitude>
    <featuretype code="AA">Crater, craters</featuretype>
  </feature>
  <feature>
    <cleanName>Cysatus</cleanName>
    <target>MOON</target>
    <system>EARTH</system>
    <diameter>47.77</diameter>
    <centerlatitude>-66.21</centerlatitude>
    <centerlongitude>353.66</centerlongitude>
    <featuretype code="AA">Crater, craters</featuretype>
  </feature>
  <feature>
    <cleanName>Daedalus</cleanName>
    <target>MOON</target>
    <system>EARTH</system>
    <diameter>93.61</diameter>
    <centerlatitude>-5.83</centerlatitude>
    <centerlongitude>179.4</centerlongitude>
    <featuretype code="AA">Crater, craters</featuretype>
  </feature>
  <feature>
    <cleanName>Dag</cleanName>
    <target>MOON</target>
    <system>EARTH</system>
    <diameter>0.36</diameter>
    <centerlatitude>18.71</centerlatitude>
    <centerlongitude>5.26</centerlongitude>
    <featuretype code="AA">Crater, craters</featuretype>
  </feature>
  <feature>
    <cleanName>Daguerre</cleanName>
    <target>MOON</target>
    <system>EARTH</system>
    <diameter>45.79</diameter>
    <centerlatitude>-11.91</centerlatitude>
    <centerlongitude>33.61</centerlongitude>
    <featuretype code="AA">Crater, craters</featuretype>
  </feature>
  <feature>
    <cleanName>Dale</cleanName>
    <target>MOON</target>
    <system>EARTH</system>
    <diameter>23.41</diameter>
    <centerlatitude>-9.56</centerlatitude>
    <centerlongitude>82.93</centerlongitude>
    <featuretype code="AA">Crater, craters</featuretype>
  </feature>
  <feature>
    <cleanName>d Alembert</cleanName>
    <target>MOON</target>
    <system>EARTH</system>
    <diameter>233.55</diameter>
    <centerlatitude>51.07</centerlatitude>
    <centerlongitude>164.89</centerlongitude>
    <featuretype code="AA">Crater, craters</featuretype>
  </feature>
  <feature>
    <cleanName>Dalton</cleanName>
    <target>MOON</target>
    <system>EARTH</system>
    <diameter>60.69</diameter>
    <centerlatitude>17.07</centerlatitude>
    <centerlongitude>275.55</centerlongitude>
